stop_id,stop_code,stop_name,stop_desc,stop_lat,stop_lon,zone_id,stop_url,location_type,parent_station,stop_timezone,wheelchair_boarding
32769,151131,Forest Office Road,,18.51983,73.63158,,,,,,
32770,152339,Kusalkar Putala,,18.52889,73.82708,,,,,,
32771,154648,Tower Line,,18.67007,73.78613,,,,,,
32772,153069,Nehrunagar Depot,,18.6293,73.81942,,,,,,
32773,151724,Jagtap Chowk,,18.49153,73.90019,,,,,,
32774,150534,Bhosalevasti Nagar Road,,18.71115,74.04588,,,,,,
32775,152190,Kirkatwadi Phata,,18.44996,73.79089,,,,,,
32776,150995,Dhayari Phata,,18.46107,73.81317,,,,,,
32778,154748,Vadhu Bk,,18.66617,74.03972,,,,,,
32779,152694,Masulkar Colony,,18.63368,73.80691,,,,,,
32781,150411,Bedekar Ganpati Mandir,,18.51154,73.8172,,,,,,
32782,150465,Bhandarkar Road,,18.51485,73.8288,,,,,,
32783,150620,Budhrani Hospital,,18.533,73.88619,,,,,,
32786,152307,Kulkarni Petrol Pump,,18.51301,73.84442,,,,,,
32787,152687,Maruti Mandir Vajewadi,,18.72614,74.04912,,,,,,
32790,151124,Fatima Nagar Wanowrie,,18.50629,73.90107,,,,,,
32792,154659,Trimurti Hall,,18.65314,73.77467,,,,,,
32793,153920,Sandesh Model Colony,,18.71611,73.84864,,,,,,
32794,150811,D2 Circle,,18.45031,73.75115,,,,,,
32796,154090,Sharwari Complex,,18.62335,73.68673,,,,,,
32797,151853,Jyoti English School,,18.63077,73.82371,,,,,,
32798,152078,Kedarinagar,,18.4888,73.90011,,,,,,
32799,154071,Shaniwarwada,,18.52129,73.85528,,,,,,
32800,150693,Chaudharivasti Nagar Road,,18.68797,74.04313,,,,,,
32801,151068,Durvankur Bungalow,,18.49001,73.82566,,,,,,
32805,153486,Pradhikaran Police Chowky,,18.65062,73.76714,,,,,,
32807,151306,Gavkos Maruti,,18.52088,73.86135,,,,,,
32808,152093,Kemsewadi Shala,,18.58329,73.61864,,,,,,
32810,154674,Tulsi Chemicals,,18.62798,73.83203,,,,,,
32811,155037,Yerawada,,18.54528,73.88416,,,,,,
32813,150892,Dattawadi Kasarsai,,18.62155,73.69126,,,,,,
32814,150754,Chintamani Society,,18.48614,73.84581,,,,,,
32816,150156,Ammunition Canteen,,18.56622,73.8555,,,,,,
32817,154317,Sindhunagar,,18.6558,73.77077,,,,,,
32819,153001,Nashik Phata,,18.60936,73.82272,,,,,,
32820,153356,Pimpavali Phata,,18.59446,73.60862,,,,,,
32821,151332,Ghavtenagar,,18.52508,73.96693,,,,,,
32822,153759,Raviraj Residency,,18.50432,73.79257,,,,,,
32823,152312,Kumbare Park,,18.50324,73.79804,,,,,,
16440,111715,Vaiduwadi,,18.50374,73.92207,,,,,,
32825,150277,Autadewadi Phata,,18.44699,73.93326,,,,,,
32828,152634,Mangdewadi Petrol Pump,,18.43629,73.86051,,,,,,
32829,154879,Vitbhatti Charholi,,18.65849,73.89685,,,,,,
32830,153748,Rautnagar,,18.51753,73.69584,,,,,,
32831,150772,CIRT,,18.611,73.82327,,,,,,
32832,151350,Ghotawade Road Petrol Pump,,18.54272,73.66937,,,,,,
32834,150311,Bahiratwadi,,18.45772,73.96362,,,,,,
32835,151021,Divegaon,,18.38319,74.01554,,,,,,
32837,152447,Loni Station,,18.48916,74.02167,,,,,,
32838,154517,Talab Company,,18.46171,73.89032,,,,,,
32839,154554,Tangde Bandhumala,,18.49914,73.73782,,,,,,
32840,152827,MM School,,18.61493,73.78553,,,,,,
32841,154147,Shindenagar Mharunji,,18.60506,73.72686,,,,,,
32845,150052,Agam Mandir,,18.44675,73.85389,,,,,,
32846,150111,Alegaonkar Shala,,18.56754,73.8464,,,,,,
32848,154098,Shastri Chowk,,18.62463,73.85893,,,,,,
32849,150196,Annadhanya Godam,,18.53309,73.8893,,,,,,
32852,153253,Parvati Payatha,,18.49957,73.85311,,,,,,
32853,153901,Samarth Vidyalay,,18.7327,73.66366,,,,,,
32854,150959,Devi Indrayani Society,,18.70503,73.78299,,,,,,
32857,151594,Homegaurd,,18.55585,73.87481,,,,,,
32858,154348,Someshwarwadi,,18.54675,73.79931,,,,,,
32859,153392,Pirangut,,18.51035,73.68921,,,,,,
32860,153428,Poultry Farm Agalambe,,18.42455,73.72457,,,,,,
32861,151313,Gaymukh,,18.44897,73.83863,,,,,,
32864,154382,Spicer India Company,,18.72269,73.85208,,,,,,
32866,150889,Dattawadi,,18.50099,73.83916,,,,,,
32867,153389,Pinok Society,,18.56025,73.80355,,,,,,
32868,154661,Trinity College,,18.42408,73.90201,,,,,,
32869,154181,Shitolemala,,18.60092,74.15418,,,,,,
32870,152652,Manoharnagar,,18.7347,73.68948,,,,,,
32871,153400,PL Deshpande Udyan,,18.49334,73.83522,,,,,,
32873,151891,Kalamkarvasti,,18.5643,73.7759,,,,,,
32874,150085,Akole Bus Stop,,18.52902,73.57206,,,,,,
32875,150143,Ambegaon Pathar Corner,,18.45959,73.84592,,,,,,
32877,152264,Krushi Utpanna Bazar Samiti,,18.73558,73.96011,,,,,,
32878,153416,Pooja Hospital,,18.58988,73.81953,,,,,,
32879,153943,Sangvi,,18.57596,73.82075,,,,,,
32881,153505,Pravin Mehendi,,18.45044,73.90039,,,,,,
32882,153666,Rajmudra Society,,18.46217,73.85285,,,,,,
32883,151239,Ganesh Park,,18.47578,73.8229,,,,,,
32884,151390,Gokhalenagar Shala,,18.52645,73.82695,,,,,,
32885,152394,Landewadi,,18.61962,73.84197,,,,,,
32887,152395,Landgemala,,18.33996,73.84262,,,,,,
32888,153478,Power House Theur,,18.51937,74.04609,,,,,,
32889,154339,Snehalay Apang Shala,,18.56737,73.98775,,,,,,
32891,152752,Methodist Church,,18.55821,73.85451,,,,,,
32893,152698,Matalwadi Khanapur,,18.40354,73.7427,,,,,,
32894,151973,Karachi Chowk,,18.62122,73.80159,,,,,,
32896,151586,Holkar Pul Corner,,18.55294,73.86433,,,,,,
32898,152164,Kharadi Bypass,,18.56217,73.93842,,,,,,
32902,152802,Mile Dagad Kramank 23 Nagar Road,,18.63834,74.04739,,,,,,
32903,153088,NIBM Road,,18.47687,73.89622,,,,,,
32905,151573,Hinjawadi Petrol Pump,,18.59333,73.73604,,,,,,
32907,150148,Ambegaon Phata Lavasa Road,,18.48231,73.6631,,,,,,
32909,152199,Kiwalegaon,,18.65769,73.72222,,,,,,
32910,154566,Tapkirnagar Rahatni,,18.61209,73.78433,,,,,,
32911,153430,Poultry Farm Anisha,,18.40457,73.68237,,,,,,
32912,152830,Model Colony,,18.52936,73.83847,,,,,,
32913,151634,Inam Aali,,18.63206,73.67922,,,,,,
32914,152632,Mangdenagar,,18.46123,73.84188,,,,,,
32917,154261,Shiwarkar Garden,,18.4986,73.90048,,,,,,
32918,153460,Power House Fursungi,,18.47667,73.95716,,,,,,
32919,154149,Shindevasti Burkegaon,,18.61733,74.11568,,,,,,
32921,151655,Indraprabha,,18.66593,73.72848,,,,,,
32922,151033,Dnyaneshwar Society,,18.48304,73.84996,,,,,,
32923,153867,Sai Palace,,18.45563,73.87137,,,,,,
32924,154707,Vadacha Stop,,18.4915,73.81518,,,,,,
32928,154169,Shiroli,,18.82867,73.87685,,,,,,
32929,150898,Daulat Garden,,18.50325,73.76091,,,,,,
32930,150421,Bhagvatinagar,,18.54231,73.77708,,,,,,
32931,153142,Osade Phata,,18.38954,73.68879,,,,,,
32932,153638,Rajaram Pul Corner,,18.48895,73.82703,,,,,,
32936,151519,Handewadigaon,,18.45311,73.93271,,,,,,
32937,153905,Sambhaji Chowk,,18.64928,73.77004,,,,,,
32938,151605,HRA Reliance,,18.52803,73.77757,,,,,,
32939,150537,Bhosalevasti Uruli Kanchan,,18.48779,74.11622,,,,,,
32940,151462,Gujarwadi,,18.42671,73.87555,,,,,,
32942,153816,Sadhana Vidyalay,,18.50567,73.93849,,,,,,
32943,153064,Nehrunagar Corner,,18.63035,73.81956,,,,,,
32944,152125,Khadakwasla Dharan Stores,,18.45008,73.76367,,,,,,
32945,152765,Mhalunge Phata Chakan,,18.755,73.80854,,,,,,
32946,150456,Bhandari Company,,18.83868,73.88049,,,,,,
32948,150841,Dandekar Pul,,18.50112,73.84653,,,,,,
32949,150780,CNG Pump Corner,,18.66434,73.82448,,,,,,
32952,152370,Lakshminagar Corner,,18.49164,73.84987,,,,,,
32953,155011,Yadavvasti Prayagdham,,18.49589,74.11937,,,,,,
32954,150386,Bankarvasti,,18.67124,73.84833,,,,,,
32955,150169,Anand Ashram,,18.682,74.04225,,,,,,
32956,150184,Anand Nagar Sinhagad Road,,18.47882,73.82445,,,,,,
32957,151036,Donajegaon Phata,,18.41227,73.76665,,,,,,
32959,150617,BU Bhandari Showroom,,18.60178,73.75375,,,,,,
32960,152933,Munjabavasti,,18.589,73.89215,,,,,,
32961,152838,Mohammadwadigaon,,18.46988,73.92146,,,,,,
32963,152839,Mohammadwadi Shala,,18.46821,73.92015,,,,,,
32964,152172,Khed Shivapur,,18.34701,73.84955,,,,,,
32965,152635,Mangdewadi Phata,,18.43463,73.85981,,,,,,
32966,155005,Wireless Office,,18.54173,73.82479,,,,,,
32968,151946,Kalyani Forge,,18.71735,73.84932,,,,,,
32970,154645,Toll Naka,,18.7392,73.7481,,,,,,
32971,151635,Inamdarvasti Rahutwadi,,18.51995,73.69618,,,,,,
32972,154856,Vipraj Company,,18.7168,73.67803,,,,,,
32973,153959,Santkrupa Fabrication,,18.60692,73.72363,,,,,,
32974,151270,Ganpati Mandir Sambhajinagar,,18.66326,73.79832,,,,,,
32975,153888,Sakal Office Vadaki,,18.42513,73.98222,,,,,,
32981,153898,Samadhi Mandir,,18.56517,73.77328,,,,,,
32983,153549,Pune Station,,18.52739,73.87307,,,,,,
32984,152026,Kasba Peth Police Chowky,,18.51978,73.8562,,,,,,
32985,152201,Kodhanpur Phata,,18.34883,73.8516,,,,,,
32986,154795,Varvegaon,,18.30393,73.87019,,,,,,
32987,152899,Mugawade,,18.54273,73.62853,,,,,,
32989,151329,Ghat Utar Valan,,18.40085,73.85702,,,,,,
32990,152203,kohima line,,18.67349,73.76413,,,,,,
32991,152348,Labour Office,,18.53521,73.85135,,,,,,
32992,150452,Bham,,18.80501,73.8727,,,,,,
32994,150704,Cheladi Phata,,18.26593,73.88186,,,,,,
32995,154740,Vadgaonmawal Phata,,18.7284,73.65482,,,,,,
24804,137874,Vitthal Mandir Mhasolkar,,18.63325,73.81236,,,,,,
32996,153681,Rakshevasti,,18.57578,73.70999,,,,,,
32997,154791,Vardade Phata,,18.38947,73.70037,,,,,,
32998,153790,Royal Park,,18.49616,73.83166,,,,,,
32999,150598,Boratevasti Nasik Road,,18.66519,73.84878,,,,,,
33000,150885,Dattanagar Katraj Road,,18.44939,73.84964,,,,,,
33001,154802,Vasantbaug Chowk,,18.4808,73.86168,,,,,,
33002,151872,Kadus Phata,,18.84749,73.88426,,,,,,
33003,153474,Power House Padmawati,,18.47681,73.85097,,,,,,
33004,153141,Osade Phata,,18.38953,73.68883,,,,,,
33006,152099,Kendriya Vidyalay Lohgaon,,18.59181,73.91704,,,,,,
33007,151515,Hadapsargaon,,18.50167,73.93307,,,,,,
33008,151723,Jagdhmba Hotal,,18.57737,73.78758,,,,,,
33010,151651,Indoorance System Chakan Mhalunge,,18.74243,73.80676,,,,,,
33012,153244,Parvatigaon,,18.49744,73.85098,,,,,,
33013,153538,pumpung Station Medi Point,,18.5637,73.79675,,,,,,
33014,153961,Santnagar,,18.64686,73.84565,,,,,,
33015,154772,Vallabhnagar ST Stand,,18.6152,73.81681,,,,,,
33016,153883,Sai Washing Center,,18.6263,73.68103,,,,,,
33018,151555,Hill Hila,,18.4527,73.88352,,,,,,
33019,150867,Dattamandir Narhe Road,,18.45604,73.81987,,,,,,
33020,151401,Gokulnagar Katraj Kondhwa Road,,18.44989,73.8757,,,,,,
33021,153341,Petrol Pump Dhanora,,18.67009,73.91917,,,,,,
33022,154009,Satavvasti,,18.53517,73.70593,,,,,,
33023,152807,Mile Dagad Kramank 9,,18.50704,73.78536,,,,,,
33024,153965,Santoshi Mata Mandir Alandi,,18.67648,73.90238,,,,,,
33025,153039,NCL Colony,,18.53987,73.81655,,,,,,
33026,151493,Gurukrupa Hospital,,18.60304,73.73096,,,,,,
33027,152930,Mundhwa Shala,,18.53419,73.92866,,,,,,
33028,152220,Kondhwa Bk,,18.45419,73.89066,,,,,,
33029,153531,Pulachiwadi,,18.32365,73.85479,,,,,,
33030,154008,Satavvasti,,18.53504,73.70577,,,,,,
33032,151955,Kamala Nehru Hospital,,18.52201,73.86132,,,,,,
33033,153465,Power House Indrayninagar,,18.63161,73.831,,,,,,
33034,154315,Sindhunagar,,18.65588,73.77098,,,,,,
33035,152288,Ksb Chowk,,18.65113,73.80986,,,,,,
33038,152341,Kusgaon,,18.33112,73.82032,,,,,,
33039,154786,Vanwadi Corner,,18.49848,73.89532,,,,,,
33040,151874,Kadvasti Undri,,18.46207,73.91367,,,,,,
33041,151528,Hanumannagar,,18.5261,73.83169,,,,,,
33043,154497,Swarajnagari,,18.72916,73.65812,,,,,,
33045,155016,Yamunanagar Corner,,18.6642,73.7867,,,,,,
33047,152853,Moi Phata,,18.68243,73.81922,,,,,,
33048,154548,Talyacha Matha,,18.71437,73.77271,,,,,,
33049,154175,Shitalbaug,,18.61572,73.84622,,,,,,
33050,151760,Jakat Naka Saswad,,18.36472,74.02314,,,,,,
33051,155055,Zendemala,,18.70212,73.75998,,,,,,
33053,151638,Inamdarvasti Solapur Road,,18.48786,74.11226,,,,,,
33054,152131,Khadi Machine Hinjawadi Road,,18.57668,73.71186,,,,,,
33055,151919,Kalimata Mandir,,18.62855,73.78495,,,,,,
33056,154727,Vadgaon BK Phata,,18.46716,73.81937,,,,,,
33057,154096,Shasakiya Vishramgruha Paudgaon,,18.52421,73.60775,,,,,,
33058,152626,Mandharevasti,,18.39887,73.76855,,,,,,
33059,153059,Nehrunagar,,18.62958,73.81933,,,,,,
33062,154751,Vadkinala,,18.43626,73.97736,,,,,,
33063,151692,Ingalevasti,,18.46587,73.77693,,,,,,
33064,150954,Detwayalar Company,,18.51375,73.69503,,,,,,
33066,151221,Ganeshnagar Dhayari,,18.44885,73.81066,,,,,,
33067,153838,Saibaba Mandir Karvenagar,,18.49517,73.83073,,,,,,
33068,153925,Sane Chowk,,18.66716,73.79615,,,,,,
33070,152252,Kothrud Depot,,18.50805,73.79473,,,,,,
33071,151211,Ganeshnagar Alandi Road,,18.59735,73.87336,,,,,,
33072,153112,Nirma Company,,18.64596,73.88048,,,,,,
33075,150131,Ambedkarnagar Baner,,18.55519,73.79587,,,,,,
33077,150231,ARDL Gate,,18.53793,73.80203,,,,,,
33078,150237,Army College,,18.52979,73.90829,,,,,,
33080,154998,West Wing Society,,18.54822,73.77373,,,,,,
33081,152575,Malwadi Dehu,,18.7115,73.76102,,,,,,
33084,151250,Ganganagar Saswad Road,,18.48669,73.95253,,,,,,
33085,153667,Rajmudra Society,,18.46256,73.85319,,,,,,
33086,153051,NDA Gol Market,,18.46738,73.76437,,,,,,
33087,154782,Vanaj Corner,,18.50774,73.80817,,,,,,
33089,150632,Burma Shell,,18.57797,73.9031,,,,,,
33090,151355,Ghulevasti Manjari,,18.52522,73.95974,,,,,,
33091,152021,Kasarsai Karkhana Phata,,18.62902,73.67595,,,,,,
33092,152855,Mominpura,,18.50804,73.86238,,,,,,
33093,154724,Vadgaon BK Highway,,18.46626,73.817,,,,,,
16709,118487,Bahirwade Kridangan,,18.66176,73.80792,,,,,,
33094,152978,Nanded City,,18.45709,73.80149,,,,,,
33095,154473,Suskhind Phata Sus Road,,18.54729,73.77274,,,,,,
33097,152796,Mile Dagad Kramank 21 Diveghat,,18.42112,73.98888,,,,,,
33099,154460,Surgeon Quarters,,18.55427,73.85664,,,,,,
33100,151809,Jilha Parishad,,18.5238,73.86994,,,,,,
33101,154371,Sortapwadi,,18.48797,74.09902,,,,,,
33103,154066,Shanipar,,18.51223,73.85378,,,,,,
33104,152345,Kutalevasti,,18.56226,74.04708,,,,,,
33105,153340,Peth,,18.34737,73.75745,,,,,,
33106,154297,Siddhivinayak Vastu,,18.48257,73.93145,,,,,,
33108,151183,Gandharvanagari,,18.6482,73.85063,,,,,,
33109,150235,ARDL Office,,18.53801,73.80232,,,,,,
33110,152106,Kendurgaon,,18.78274,74.04112,,,,,,
33111,154132,Shikshaknagar,,18.51023,73.80332,,,,,,
33112,153846,Sai Chowk Navi sangvi,,18.57861,73.81603,,,,,,
33113,151904,Kale Colony,,18.49575,73.93293,,,,,,
33114,153322,PCP College Chowk,,18.65052,73.76304,,,,,,
33115,151316,General Motors,,18.78927,73.69447,,,,,,
33116,151361,Girls Hostel,,18.47361,73.9317,,,,,,
33117,152983,Nandgude Shala,,18.58246,73.78335,,,,,,
33118,154174,Shitaladevi Chowk Pimplegurav,,18.58198,73.82998,,,,,,
33119,152111,Keshavnagar Chowk,,18.53201,73.93722,,,,,,
33120,154908,Vitthal Mandir Hadapsar,,18.50801,73.94165,,,,,,
33121,153081,Newale Chowk,,18.66424,73.80707,,,,,,
33123,151418,Goodluck Chowk,,18.5176,73.84146,,,,,,
33124,151813,Jilha Parishad Shala,,18.34714,73.7928,,,,,,
33125,154857,Vipraj Company,,18.71699,73.67827,,,,,,
33126,150186,Anand Park,,18.55592,73.80915,,,,,,
33128,150974,Dhangarvasti,,18.50755,74.11239,,,,,,
33129,154827,Vetalbaba Chowk,,18.5291,73.83076,,,,,,
33130,153290,Patrakarnagar,,18.52419,73.82777,,,,,,
33133,154643,Tolani Institute,,18.73805,73.73079,,,,,,
33137,150900,Daulatnagar Dhankawadi Road,,18.46392,73.85662,,,,,,
33138,153958,Sant Gadge Maharaj Shala,,18.5343,73.88576,,,,,,
33139,154689,United Western Sabhagrugha,,18.4932,73.8278,,,,,,
33140,152897,MSB Pumping Station,,18.5375,73.79626,,,,,,
33141,153948,Sangvi Phata,,18.57354,73.80623,,,,,,
33145,152625,Mandai Stand,,18.51513,73.85637,,,,,,
33146,151782,Jawalgaon,,18.59117,73.6107,,,,,,
33147,154150,Shindevasti Burkegaon,,18.61906,74.11154,,,,,,
33149,152017,Kasarsai,,18.62783,73.67857,,,,,,
33150,152593,Manajinagar,,18.45346,73.82444,,,,,,
33151,154278,Shreeman Society,,18.49205,73.82024,,,,,,
33152,153842,Saibaba Mandir Materewadi,,18.56781,73.66213,,,,,,
386,30018,Ma Na Pa,,18.52382,73.85411,,,,,,
33155,151171,Gajanan Maharaj Mandir Alandi Road,,18.63188,73.87263,,,,,,
33158,154377,Spicer College,,18.56283,73.81808,,,,,,
33159,154681,Udaybaug,,18.51118,73.9071,,,,,,
33161,152583,Malwadi Markal Road,,18.65456,74.01468,,,,,,
33162,151940,Kalukh Shetmala,,18.68075,74.04199,,,,,,
33163,153625,Railway Gate Uralikanchan,,18.49526,74.12448,,,,,,
33164,154137,Shinde Chhatri,,18.49262,73.89436,,,,,,
33165,152232,Kondhwa Kh,,18.47281,73.88916,,,,,,
33166,151295,Gaurdroom,,18.56602,73.89527,,,,,,
33168,152568,Malkhed,,18.39322,73.70283,,,,,,
33170,150768,Chutkevasti,,18.50128,73.74458,,,,,,
33171,151428,Gorhe Bk Shala,,18.41797,73.75788,,,,,,
33172,151196,Ganeshmala,,18.49641,73.83877,,,,,,
33173,151854,Jyoti English School,,18.63053,73.82387,,,,,,
33174,154283,Shreenagar,,18.60796,73.78102,,,,,,
33175,152258,Kousarbaug,,18.47785,73.89093,,,,,,
33176,152826,MM School,,18.61493,73.78552,,,,,,
33177,152350,Ladies Hostel,,18.46121,73.87743,,,,,,
33178,151933,Kalubai Mandir Ramtekdi,,18.5064,73.90663,,,,,,
33179,151956,Kamala Nehru Hospital,,18.52256,73.8622,,,,,,
33180,154762,Vajewadi Chaufula,,18.71582,74.04668,,,,,,
33183,153833,Sahwas Corner,,18.49262,73.81838,,,,,,
33184,152557,Mahindra Company,,18.6285,73.80752,,,,,,
33185,152924,Mundhwa Gaon,,18.53252,73.93281,,,,,,
33186,153954,Sant Company,,18.51763,73.64394,,,,,,
33187,154411,Station Family Camp,,18.52324,73.88685,,,,,,
33188,151686,Ingale Hospital,,18.61879,73.79274,,,,,,
33189,153897,Salve Garden,,18.45826,73.87797,,,,,,
33190,152006,Karvenagar Corner,,18.48907,73.81523,,,,,,
33191,152631,Mandvi Kh,,18.41423,73.70907,,,,,,
33192,152921,Mundhwagaon,,18.53284,73.93369,,,,,,
33193,153896,Salve Garden,,18.458,73.87794,,,,,,
33195,153314,Pawarvasti Chikhali Road,,18.66682,73.81499,,,,,,
33196,155058,Zendewadi,,18.41524,74.00554,,,,,,
33198,152072,Kawdewadi,,18.53787,73.89256,,,,,,
33200,154105,Shatrunjay Mandir,,18.45058,73.87961,,,,,,
33201,154797,Vasantbaug,,18.4809,73.86145,,,,,,
33202,154678,U Co Bank,,18.47903,73.89065,,,,,,
33204,151597,Hotel Rajyog,,18.54879,73.66851,,,,,,
437,30002,Bhairav Nagar,,18.58269,73.88313,,,,,,
33207,151843,Juna Pulgate,,18.50586,73.87846,,,,,,
440,30005,Dhanori Gaon,,18.59544,73.89438,,,,,,
33208,150400,Bavdhangaon,,18.51539,73.78214,,,,,,
441,30006,Dhanori Shala,,18.59212,73.89052,,,,,,
33210,150769,Cipla Center,,18.48546,73.79801,,,,,,
442,30007,Gokul Nagar,,18.58775,73.88701,,,,,,
33211,150554,Bhumkarnagar,,18.4493,73.83435,,,,,,
33212,154698,Urawdegaon,,18.48602,73.66415,,,,,,
444,30009,Holkar Pool,,18.55511,73.86073,,,,,,
33213,153963,Santnagar MIDC Police Station,,18.65076,73.83988,,,,,,
33214,154564,Tapkirnagar Moshi Road,,18.67313,73.88815,,,,,,
446,30011,Jakatnaka,,18.59726,73.90644,,,,,,
447,30012,Kamal Park,,18.59738,73.90085,,,,,,
33220,151424,Gopi Chal,,18.56754,73.83888,,,,,,
33222,152208,Kokate Aali,,18.53898,73.79381,,,,,,
33226,150133,Ambedkarnagar Pimplegurav,,18.59244,73.81902,,,,,,
33227,150380,Baner Phata,,18.54988,73.80976,,,,,,
460,30027,Sathe Biscuit,,18.57055,73.87889,,,,,,
33228,152303,Kudje Shala,,18.42745,73.73997,,,,,,
461,30028,Sathe Nagar,,18.59743,73.91482,,,,,,
33229,153929,Sanewadi,,18.55338,73.80947,,,,,,
33231,153736,Ranwarevasti,,18.54809,73.77054,,,,,,
33232,154447,Sundarban,,18.44902,73.87001,,,,,,
467,30034,Swargate,,18.49928,73.85817,,,,,,
33235,153143,Oskar Company,,18.51115,73.68414,,,,,,
469,30036,Abhinav College,,18.50589,73.85295,,,,,,
33237,154155,Shindevasti Mundhwa,,18.53109,73.94036,,,,,,
33239,152638,Manikchand Dhariwal Sinhagad College,,18.48997,73.79149,,,,,,
33240,150890,Dattawadi,,18.50117,73.83927,,,,,,
474,30041,Fergusson College,,18.523,73.84086,,,,,,
475,30042,Dyaneshwer paduka,,18.52647,73.84179,,,,,,
33244,153648,Rajendranagar,,18.50492,73.84331,,,,,,
33245,154341,SNZ Chemical Company,,18.54621,73.66554,,,,,,
478,40002,Bhairav Nagar,,18.58964,73.88847,,,,,,
33246,153688,Ramanbaug Shala,,18.51732,73.85013,,,,,,
480,40005,Dagdi Khaan,,18.57594,73.88049,,,,,,
33249,150304,Badhevasti,,18.53265,73.9345,,,,,,
33250,153643,Rajas Society Corner,,18.44817,73.86411,,,,,,
484,40009,Gokul Nagar,,18.59193,73.89057,,,,,,
33252,151810,Jilha Parishad,,18.52382,73.86996,,,,,,
33253,153121,North Len,,18.53787,73.89255,,,,,,
33254,152062,Katraj,,18.44749,73.85961,,,,,,
486,40011,Holkar Pool,,18.55468,73.86025,,,,,,
33255,152351,Ladies Hostel,,18.46124,73.87744,,,,,,
488,40013,Jakatnaka,,18.59716,73.9064,,,,,,
33256,151701,ITI Saswad Road,,18.38886,74.01463,,,,,,
33257,153072,Nehru Stadium,,18.50111,73.85551,,,,,,
33258,154247,Shivtarwadi Phata,,18.34364,73.77402,,,,,,
491,40017,Madhav Nagar,,18.59709,73.90062,,,,,,
33259,152512,Mahadevnagar Hingne,,18.47509,73.82917,,,,,,
33260,152648,Manjari Kh,,18.52755,73.99169,,,,,,
33262,150438,Bhairoba Pumping Station,,18.53914,73.90161,,,,,,
494,40021,Modern High School,,18.52476,73.84938,,,,,,
33263,150872,Dattamandir Shivapurgaon,,18.33927,73.83874,,,,,,
33264,151437,Govind Garden Chowk,,18.59761,73.80292,,,,,,
33265,155029,YCM Hospital,,18.62332,73.81844,,,,,,
33266,152134,Khadi Machine Katraj Kondhwa Road,,18.45293,73.89095,,,,,,
33267,151804,Jijamata Chowk,,18.72157,73.68445,,,,,,
33268,150976,Dhankawadi,,18.4654,73.85014,,,,,,
33269,151366,Godambevasti,,18.54159,73.67984,,,,,,
503,40030,Sathe Biscuit,,18.57032,73.87904,,,,,,
33271,151445,GPO,,18.52302,73.87637,,,,,,
33272,152823,Mitti Ka Ghar,,18.51912,73.88225,,,,,,
505,40032,Torna garden,,18.59805,73.90883,,,,,,
33273,151699,ITI Aundh,,18.56027,73.80913,,,,,,
33277,150853,Darshan Hall,,18.62952,73.78686,,,,,,
33278,151374,Godown Katraj Kondhwa Road,,18.4539,73.88593,,,,,,
33280,153637,Rajaram Pul Corner,,18.48935,73.82672,,,,,,
33282,151175,Gajanan Maharajnagar,,18.46325,73.87756,,,,,,
33283,153698,Ramnagari,,18.44888,73.84316,,,,,,
516,30001,Ambedkar Society,,18.553,73.87375,,,,,,
33284,153956,Sant Dharmaji Samadhi,,18.42667,73.75416,,,,,,
517,30004,Deccan College,,18.54993,73.8718,,,,,,
33285,152743,MES Canteen IAT,,18.43152,73.76945,,,,,,
518,30010,Homeguard,,18.55623,73.87517,,,,,,
33286,153528,PAndT Colony,,18.4925,73.86941,,,,,,
519,30017,Mental Hospital,,18.56651,73.87875,,,,,,
33287,150527,Bhondvevasti Nagar Road,,18.69855,74.04476,,,,,,
520,30023,Phule Nagar,,18.5599,73.87644,,,,,,
33288,150020,5 Wa Mile,,18.56229,73.92295,,,,,,
521,40001,Ambedkar Society,,18.55273,73.87366,,,,,,
522,40006,Deccan College,,18.55009,73.87197,,,,,,
33291,150941,Dehuroad Police Lane,,18.68631,73.72218,,,,,,
524,40019,Mental Hospital,,18.5662,73.87865,,,,,,
33293,153483,Prachi Apartment,,18.64573,73.77032,,,,,,
525,40026,Phule Nagar,,18.55958,73.87642,,,,,,
526,30021,Panyachi Taki,,18.59754,73.91975,,,,,,
33294,153773,Rihegaon,,18.57676,73.64174,,,,,,
527,40024,Panyachi Taki,,18.59746,73.9209,,,,,,
33295,153857,Sai Corner,,18.59212,73.89209,,,,,,
528,40012,Homeguard,,18.55588,73.87515,,,,,,
33296,153247,Parvati Gaon,,18.49366,73.85034,,,,,,
33298,154550,Tamhane Chowk,,18.56173,73.7923,,,,,,
33299,151974,Karachi Chowk,,18.62123,73.80167,,,,,,
33300,152847,Mohitevasti,,18.63789,73.74461,,,,,,
33301,153405,Police Chowky,,18.3468,74.02939,,,,,,
33302,153540,Punawale,,18.63905,73.7477,,,,,,
535,30050,Ganesh Nagar Corner,,18.59757,73.87317,,,,,,
33303,152045,Kate Patil Chowk,,18.59909,73.80781,,,,,,
33304,150896,Dattawadi Mhasoba Chowk,,18.50151,73.83915,,,,,,
33305,151025,Dnyanesh Society,,18.478,73.79827,,,,,,
537,30052,Walake Mala,,18.60666,73.87335,,,,,,
33306,152690,Maruti Mandir Wes,,18.52357,73.98532,,,,,,
538,30053,Dighi Gaon,,18.60969,73.87317,,,,,,
33308,152869,Morwadi,,18.63059,73.80299,,,,,,
33309,152396,Lavlegaon,,18.52739,73.70339,,,,,,
33310,154127,Shewalwadi Rehe,,18.55736,73.66811,,,,,,
33312,151964,Kamgarnagar,,18.62908,73.81219,,,,,,
33314,153413,Police Vasahat Gokhalenager,,18.52352,73.82527,,,,,,
33315,154252,Shivtharwadi,,18.34374,73.77661,,,,,,
33316,154841,Vikasnagar,,18.67215,73.7323,,,,,,
33317,153402,PMT Chowk Bhosari,,18.62048,73.85056,,,,,,
33318,151728,Jagtap Dairy,,18.5933,73.78421,,,,,,
33319,150966,Dhamalevasti Mundhwa,,18.53154,73.93233,,,,,,
552,30067,Navin S T Stand,,18.67236,73.89239,,,,,,
33322,154245,Shivshankar Super Market,,18.44071,73.86518,,,,,,
33323,153369,Pimplesaudagar Chowk,,18.6007,73.80308,,,,,,
33324,151135,Fujitsu Company,,18.70471,73.79126,,,,,,
556,30071,Vitthal Baba Darga,,18.68091,73.90036,,,,,,
33325,153522,Protacto Company,,18.77601,73.87013,,,,,,
33326,154230,Shivnagar,,18.54016,73.78007,,,,,,
33327,152047,Kate Patil Chowk,,18.59942,73.80729,,,,,,
33330,150688,Chaudharibaug,,18.47147,74.07256,,,,,,
33331,151111,Fadtarevasti,,18.6503,74.0571,,,,,,
563,30078,Gavhanevasti,,18.70925,73.93071,,,,,,
33334,153394,Pisoligaon,,18.44942,73.90807,,,,,,
33335,151713,Jadhavwadi Phata Chikhali,,18.68032,73.83254,,,,,,
33337,153431,Poultry Farm Anisha,,18.40473,73.68243,,,,,,
33339,153668,Rajwade Bungalow,,18.50749,73.77301,,,,,,
33340,154680,Udaybaug,,18.51093,73.907,,,,,,
33341,151158,Gaikwadvasti Nandegaon,,18.54635,73.71354,,,,,,
33344,151011,Diamond Wach Company,,18.35038,73.80555,,,,,,
33345,152629,Mandvi Bk,,18.4088,73.70499,,,,,,
33346,152653,Mantarwadi,,18.46551,73.96242,,,,,,
33347,151516,Hagawanevasti,,18.43884,73.79303,,,,,,
33348,153990,Sasanenagar,,18.49262,73.93218,,,,,,
580,30095,Ganeshnagar,,18.59368,73.86413,,,,,,
581,30096,Jeevannagar Hospital,,18.59115,73.86327,,,,,,
33350,153712,Ramtekdi,,18.50624,73.91295,,,,,,
33353,151249,Ganganagar Pradhikaran,,18.64735,73.77661,,,,,,
586,30101,Sangamwadi phata,,18.53653,73.86231,,,,,,
33354,154939,Wadia Bungalow,,18.54942,73.89299,,,,,,
587,30102,Kendriya Vidyalaya,,18.54537,73.87619,,,,,,
33355,153313,Pawarvasti Chikhali Road,,18.66327,73.81416,,,,,,
33358,152660,Mariaai Mandir,,18.50021,73.75343,,,,,,
33359,153136,Optonica Company,,18.61724,73.84378,,,,,,
33360,154629,Thubevasti,,18.57289,74.0222,,,,,,
33361,154471,Suskhind Phata Sus Road,,18.54701,73.7729,,,,,,
33364,153624,Railway Gate Number 1,,18.49453,74.12856,,,,,,
33365,150310,Bahiratwadi,,18.45772,73.96357,,,,,,
598,30113,Tingre Nagar Grampanchayat,,18.57699,73.89059,,,,,,
599,30114,Vidyanagar,,18.57971,73.8904,,,,,,
600,30115,Yerwada Gaon,,18.54551,73.8866,,,,,,
33368,152507,Mahadev Mandir Pimple Saudagar,,18.60177,73.79937,,,,,,
33369,154422,ST Stand Indori,,18.73529,73.70886,,,,,,
602,30117,Netaji High School,,18.55184,73.88939,,,,,,
603,30118,Bidi Kamgar Vasahat,,18.55323,73.88273,,,,,,
33372,152794,Mile Dagad Kramank 19 Diveghat,,18.42427,73.9825,,,,,,
33373,154989,Warje Malwadi,,18.4756,73.7956,,,,,,
33374,152722,Mayurnagari,,18.58672,73.81289,,,,,,
33375,154228,Shivnagar,,18.53888,73.78475,,,,,,
608,30123,Durvankur Lawns,,18.62593,73.8622,,,,,,
33376,150715,Chimbli Phata,,18.69599,73.84758,,,,,,
33378,153620,Railway Crossing Mhatobachi Alandi,,18.46384,74.07123,,,,,,
33379,152314,Kumbharvasti Pashan,,18.54092,73.77903,,,,,,
611,30126,Bhosari,,18.62462,73.85127,,,,,,
612,30127,Magazine,,18.63253,73.87343,,,,,,
33381,150924,Deep Bungalow,,18.52987,73.8355,,,,,,
617,30132,Mira Society,,18.50201,73.87233,,,,,,
33385,150505,Bhaurao Patil Chowk,,18.56606,73.83142,,,,,,
33386,150182,Anandnagar Sinhagad Road,,18.47866,73.82439,,,,,,
33387,153323,PC Pole Company,,18.63867,74.05473,,,,,,
620,30135,Bombay Garage,,18.51272,73.87997,,,,,,
33390,151398,Gokul Hotel,,18.62467,73.80339,,,,,,
33391,152697,Matalwadi Khanapur,,18.40344,73.74274,,,,,,
624,30139,Tapkir nagar,,18.65985,73.89566,,,,,,
33393,153664,Rajiv Gandhinagar,,18.46005,73.86916,,,,,,
33394,150254,Ashoknagar Rangehills,,18.54186,73.83743,,,,,,
627,30142,Dabhade Vasti,,18.65728,73.89906,,,,,,
33396,152950,Naigaon Phata,,18.48836,74.07037,,,,,,
33397,153417,Pooja Hospital,,18.59001,73.81955,,,,,,
630,40044,R&D colony,,18.57709,73.87661,,,,,,
33398,153206,Panyachi Taki Kendur,,18.72723,74.05634,,,,,,
33400,151672,Indrayani Vihar,,18.59521,73.93439,,,,,,
633,40047,Mhaskewasti,,18.58713,73.87524,,,,,,
634,40048,Parade ground,,18.59097,73.87444,,,,,,
33402,154685,Undrigaon,,18.45071,73.91587,,,,,,
635,40049,Ganesh Nagar Corner,,18.59726,73.87337,,,,,,
33403,153047,NCL Hostel,,18.54082,73.82123,,,,,,
33405,150115,Alhatvasti,,18.67621,73.85441,,,,,,
33406,153432,Poultry Farm Darshan,,18.64019,73.65899,,,,,,
639,40053,Parande Nagar,,18.61792,73.87416,,,,,,
33408,150690,Chaudhari Dhaba,,18.67338,73.84885,,,,,,
33409,153912,Sanakta Company,,18.51771,73.6487,,,,,,
33410,153702,Ramnagar Rahatni,,18.60327,73.79244,,,,,,
33411,154173,Shitaladevi Chowk Pimplegurav,,18.58085,73.83,,,,,,
33413,150424,Bhagwat Mangal Karyalay,,18.62995,73.67474,,,,,,
33415,150765,Chudaman Talim,,18.5083,73.87489,,,,,,
33416,152293,KSB Chowk,,18.65131,73.80961,,,,,,
33417,151226,Ganeshnagari,,18.53009,73.94369,,,,,,
33420,151392,Gokhalenagar Vasahat,,18.52489,73.8269,,,,,,
33421,150970,Dhangar Baba,,18.47132,73.79034,,,,,,
33422,152740,Mental Corner,,18.56477,73.87699,,,,,,
33424,151970,Kanifnath Society,,18.49536,73.93279,,,,,,
658,40072,Thakur Vasti,,18.68558,73.90532,,,,,,
33428,151070,Durvankur Mangal Karyalay,,18.62598,73.86239,,,,,,
33429,150529,Bhondvevasti Ravet,,18.65353,73.73761,,,,,,
661,40075,Shivam Industries,,18.69855,73.92,,,,,,
33430,152218,Kondhur Phata,,18.43812,73.63797,,,,,,
33431,150749,Chintamaninagar Sasanenagar,,18.48725,73.93184,,,,,,
663,40077,Gavhanevasti,,18.71108,73.93208,,,,,,
33432,152556,Mahindra Company,,18.62843,73.80739,,,,,,
666,40080,Vadgaon Ghenand Shala,,18.71935,73.94111,,,,,,
33435,154824,Venutai Chavan College,,18.46928,73.83348,,,,,,
667,40081,Khandoba Mandir,,18.72224,73.9432,,,,,,
33436,152081,Kedarinagar Chowk,,18.48672,73.90017,,,,,,
669,40083,Shelgaon,,18.73177,73.94638,,,,,,
33438,153437,Poultry Farm Desai,,18.57374,73.78083,,,,,,
33439,151077,Eagle Company,,18.73227,73.67065,,,,,,
17055,121615,Upper Depot,,18.46062,73.8692,,,,,,
33440,154932,Wadebolhai,,18.58677,74.07852,,,,,,
33443,152238,Kondhwa Police Station,,18.46285,73.88977,,,,,,
33444,151228,Ganeshnagar Navlakh Umbre Road,,18.7421,73.65807,,,,,,
33445,151048,DP Road Corner,,18.56051,73.80669,,,,,,
33446,150739,Chinchwad Station,,18.63845,73.79456,,,,,,
678,40092,Subhash Vidyalaya,,18.72551,73.99872,,,,,,
33447,150290,A Ward Office,,18.65577,73.77219,,,,,,
679,40093,Bahulgaon,,18.72207,73.99947,,,,,,
680,40094,Ganeshnagar,,18.59378,73.86423,,,,,,
33448,150300,Badadevasti,,18.48829,74.08424,,,,,,
33449,150485,Bharati Vidyapeeth,,18.45734,73.85208,,,,,,
33450,151369,Godown Gultekdi,,18.48769,73.87061,,,,,,
684,40098,Jeevannagar Hospital,,18.59116,73.86326,,,,,,
33453,151837,Judson Highschool,,18.68503,73.72589,,,,,,
686,40100,Sangamwadi phata,,18.5375,73.86337,,,,,,
687,40101,Kendriya Vidyalaya,,18.54526,73.87648,,,,,,
33457,151188,Gandhi Bhavan Phata,,18.49481,73.81333,,,,,,
33459,154256,Shivtirthnagar Corner,,18.5086,73.80912,,,,,,
33460,154156,Shindevasti Susgaon,,18.553,73.72883,,,,,,
33463,152733,Mehandale Garage,,18.50492,73.83158,,,,,,
696,40110,Sasoon Hospital,,18.52506,73.87144,,,,,,
33464,153187,Pandavnagar Senapati Bapat Road,,18.5272,73.83463,,,,,,
33465,150504,Bhau Patil Chowk,,18.56622,73.83128,,,,,,
33466,154387,Splender Country Club Gate Kramank,,18.40074,73.69114,,,,,,
33467,151607,Hud Company,,18.68538,73.84676,,,,,,
699,40113,Tingre Nagar Grampanchayat shala,,18.57683,73.89073,,,,,,
33469,154238,Shivraj nagar,,18.59942,73.78039,,,,,,
33470,152096,Kendriya Vidyalay Dehu Road,,18.67682,73.75249,,,,,,
703,40117,Vishrantwadi,,18.57266,73.87922,,,,,,
33471,152123,Khadakwasla Dharan,,18.43879,73.77319,,,,,,
33472,152327,Kunjirmala,,18.50343,74.04477,,,,,,
33474,154756,Vaiduwadi,,18.50373,73.92203,,,,,,
706,40120,Bidi Kamgar Vasahat,,18.55337,73.88257,,,,,,
707,40121,Netaji High School,,18.55189,73.88958,,,,,,
33475,152639,Manikchand Dhariwal Sinhagad College,,18.49013,73.79125,,,,,,
33476,152904,Mukainagar,,18.44421,73.78329,,,,,,
709,40123,Yerwada Gaon,,18.54523,73.88682,,,,,,
33477,153699,Ramnagar Pimplegurav,,18.58887,73.8128,,,,,,
33478,153797,Ruby Hall,,18.53315,73.87808,,,,,,
33479,154902,Vithai Warehouse,,18.56242,73.98759,,,,,,
712,40126,Bhosari,,18.62305,73.85115,,,,,,
33480,152373,Lakshminagar Handewadi Road,,18.45514,73.93204,,,,,,
33481,152474,Maan,,18.5766,73.71173,,,,,,
33482,152294,Ksb Chowk,,18.64961,73.80923,,,,,,
715,40129,Durvankur Lawns,,18.62588,73.86234,,,,,,
33483,153815,Sadgurunagar,,18.63364,73.84972,,,,,,
717,40131,Magazine,,18.6323,73.87336,,,,,,
33485,154739,Vadgaonmawal Phata,,18.72837,73.65464,,,,,,
33486,153427,Potoba Mandir,,18.74072,73.63747,,,,,,
33487,153544,Punawale Phata,,18.6391,73.75016,,,,,,
720,40134,Bombay Garage,,18.51309,73.88003,,,,,,
33488,150957,Devachi Uruli  Phata,,18.45992,73.96509,,,,,,
33489,150410,Bedekar Ganpati Mandir,,18.51146,73.81741,,,,,,
33490,150708,Chhajed Petrol Pump,,18.57307,73.83465,,,,,,
723,40137,Mira Society,,18.50164,73.87061,,,,,,
33491,152121,Khadakwadi Phata,,18.418,73.71668,,,,,,
33492,150653,Chaitanya Vidyalay,,18.46864,73.88904,,,,,,
33493,152014,Kasar Amboli,,18.51362,73.66394,,,,,,
33494,151697,Insurance Company,,18.56618,73.77115,,,,,,
33496,153063,Nehrunagar Corner,,18.62938,73.81944,,,,,,
729,40143,Charoli Gaon,,18.65403,73.90919,,,,,,
33497,153718,Ramyanagari,,18.46722,73.93368,,,,,,
33498,154816,Vataremala,,18.52442,73.90634,,,,,,
730,40144,Dabhade Vasti,,18.65724,73.89859,,,,,,
33501,151937,Kalubai Mandir Warve,,18.29134,73.87267,,,,,,
733,40147,Tapkir nagar,,18.65975,73.89546,,,,,,
33502,154481,Sutarwadi Pashan,,18.53899,73.78092,,,,,,
734,30144,Kothrud Terminal,,18.5068,73.79554,,,,,,
33503,154533,Talegaon Khind,,18.7139,73.67666,,,,,,
33504,152230,Kondhwa Hospital,,18.439,73.89549,,,,,,
736,30146,Bharati Nagar,,18.50801,73.79706,,,,,,
33506,154510,Symbiosis College,,18.52238,73.82926,,,,,,
33507,154154,Shindevasti Mundhwa,,18.53107,73.94034,,,,,,
33508,153295,Paud Phata,,18.5062,73.82605,,,,,,
33509,152555,Mahila Mandal,,18.49871,73.8502,,,,,,
33510,152850,Mohol Vidyalay,,18.59887,73.60262,,,,,,
33512,153135,Optonica Company,,18.61561,73.84642,,,,,,
33513,152304,Kudje Shala,,18.42776,73.7407,,,,,,
33514,151849,Jyotibanagar,,18.68262,73.78832,,,,,,
33515,150089,Akurdi Chowk,,18.65072,73.78505,,,,,,
33516,150102,Alandi Phata,,18.73154,73.85615,,,,,,
33517,154324,Sinhgad Hotel,,18.40627,73.76819,,,,,,
33518,154435,Subhanshah Darga,,18.5128,73.85962,,,,,,
33519,153687,Ramanbaug Shala,,18.51674,73.84997,,,,,,
33520,154472,Suskhind Phata Sus Road,,18.5475,73.77355,,,,,,
33521,150643,Central Restaurant,,18.68749,73.71991,,,,,,
33522,154750,Vadkinala,,18.43142,73.97983,,,,,,
33523,151928,Kalpataru Society Pimplegurav,,18.60211,73.81723,,,,,,
33526,150956,Devachi Uruli  Phata,,18.45958,73.96529,,,,,,
33527,150037,Abhuyuday Bank,,18.5647,73.78336,,,,,,
33529,150092,Akurdi Chowk,,18.65189,73.78371,,,,,,
33531,150263,Aswee Trading Company,,18.43468,73.86838,,,,,,
33534,150672,Chandkhed,,18.6478,73.65059,,,,,,
33535,150831,Dairy Farm,,18.62062,73.76076,,,,,,
33536,151972,Kannda Lasun Sanshodhan Kendra,,18.8461,73.88292,,,,,,
33537,153036,Navsahayadri,,18.49578,73.82812,,,,,,
33539,153885,Sakalnagar,,18.5465,73.81914,,,,,,
772,40165,Bharati Nagar,,18.50775,73.79696,,,,,,
33541,154115,Shell Petrol Pump,,18.50102,73.72663,,,,,,
33542,154663,Triveninagar,,18.67168,73.78657,,,,,,
33543,151863,Kacharevasti,,18.53349,73.92066,,,,,,
33545,154001,Saswad Road Corner,,18.46521,73.9622,,,,,,
33546,150902,Daulatnagar Mumbai Pune Bypass,,18.47429,73.80976,,,,,,
33547,152951,Naigaon Phata,,18.48849,74.07043,,,,,,
33548,153381,Pimprigaon,,18.61196,73.80446,,,,,,
33549,153613,Raikar vasti,,18.45343,73.81151,,,,,,
33550,153887,Sakal Office Vadaki,,18.42475,73.98238,,,,,,
33551,154557,Tapkir Bungalow,,18.65984,73.89522,,,,,,
33553,151948,Kalyani Forge Mudhwa,,18.52889,73.90913,,,,,,
33554,151248,Ganganagar Pradhikaran,,18.64725,73.77652,,,,,,
33555,151344,Ghorpadi Shala,,18.52817,73.9003,,,,,,
33556,152953,Nakhatevasti,,18.60491,73.78659,,,,,,
33558,150203,Annasaheb Magar Vidyalay,,18.52564,73.99031,,,,,,
33559,150691,Chaudhari Dhaba,,18.67439,73.84895,,,,,,
33560,151449,Grand Hotel,,18.36419,73.85373,,,,,,
33561,153339,Peth,,18.34733,73.75752,,,,,,
33562,151994,Karnatak Highschool,,18.50167,73.82711,,,,,,
33563,152297,Kudalwadi,,18.67268,73.8159,,,,,,
33564,154600,Telco Hostel,,18.64416,73.81887,,,,,,
33565,153215,Panyachi Taki Undri,,18.44973,73.91071,,,,,,
798,30198,Mukai chowk,,18.66023,73.73154,,,,,,
799,40198,Mukai Chowk,,18.66018,73.73141,,,,,,
33568,153686,Rama Krushi Rasayan Karkhana,,18.48894,74.03101,,,,,,
33570,154561,Tapkirnagar Kalewadi,,18.61246,73.78432,,,,,,
804,30196,Ravet Chowk,,18.64436,73.74446,,,,,,
33572,151967,Kanda Engineering Company,,18.52407,73.67018,,,,,,
33573,152859,Mordari Phata,,18.3441,73.77134,,,,,,
806,40196,Ravet Chowk,,18.64474,73.74415,,,,,,
33574,150588,Bombay Garage,,18.51311,73.87987,,,,,,
33575,152605,Ma Na Pa  Nava pul,,18.52405,73.85399,,,,,,
33578,155015,Yamunanagar Corner,,18.66415,73.78656,,,,,,
811,30194,Punawale Corner,,18.63764,73.75037,,,,,,
812,30182,Aundh Hospital,,18.57687,73.80303,,,,,,
33581,150951,Deshpande Farm,,18.52777,73.57468,,,,,,
813,40194,Punawale Corner,,18.63837,73.75035,,,,,,
814,40182,Aundh Hospital,,18.57688,73.80327,,,,,,
33582,151471,Gulabnagar,,18.46549,73.85484,,,,,,
33583,154157,Shindevasti Susgaon,,18.55341,73.72667,,,,,,
33585,151606,HRA Reliance,,18.52816,73.77749,,,,,,
33586,152148,Khadki Station,,18.56174,73.84053,,,,,,
33587,153447,Poultry Farm Sangrun,,18.40444,73.68222,,,,,,
821,30191,Dairy Farm,,18.62131,73.76033,,,,,,
33589,151345,Ghotawadegaon,,18.54897,73.66223,,,,,,
823,40191,Dairy Farm,,18.62139,73.76036,,,,,,
33591,154918,Vitthalwadi Jakat Naka,,18.49059,73.83261,,,,,,
33592,152798,Mile Dagad Kramank 21 Pirangutghat,,18.50444,73.70734,,,,,,
825,30190,Dange Chowk,,18.61453,73.76604,,,,,,
33594,152534,Mahatma gandhi School,,18.3967,73.7282,,,,,,
33595,150838,Dalvivasti,,18.25891,73.88556,,,,,,
828,40185,Jagtap Dairy,,18.59351,73.78442,,,,,,
33596,152337,Kuruli Phata,,18.71534,73.84835,,,,,,
829,40189,Laxman Nagar,,18.61149,73.76853,,,,,,
33597,152926,Mundhwagaon Corner,,18.53363,73.93013,,,,,,
830,30186,Shivraj Nagar,,18.59951,73.78046,,,,,,
33598,154345,Somatne Phata,,18.70356,73.68708,,,,,,
831,30188,16 Number,,18.60767,73.77203,,,,,,
33599,152397,Lavlegaon,,18.5274,73.70336,,,,,,
832,40186,Shivrajnagar,,18.59962,73.78053,,,,,,
833,40188,16 Number,,18.60773,73.77195,,,,,,
835,40187,Kalewadi Phata,,18.60445,73.7759,,,,,,
33604,150737,Chinchwad Station,,18.64,73.79423,,,,,,
33606,153507,Prayagdham Ashram,,18.50374,74.11767,,,,,,
33607,153690,Rambaug,,18.49652,73.97011,,,,,,
840,30195,Ravet Pumping Station,,18.64325,73.74976,,,,,,
33608,152344,Kusgaon Jilha Parishad Shala,,18.33355,73.82362,,,,,,
842,30197,Bhondve Vasti,,18.65288,73.73787,,,,,,
33610,155033,Yelwadi,,18.73376,73.75742,,,,,,
843,40197,Bhondve Vasti,,18.65349,73.73748,,,,,,
33611,151055,DSK Vishwa,,18.44308,73.79882,,,,,,
844,30172,Range Hills Corner,,18.53749,73.83504,,,,,,
33614,151954,Kalyaninagar Pul,,18.53905,73.90382,,,,,,
33615,152055,Kateshwarwadi Phata,,18.73582,73.705,,,,,,
33618,152732,Mehandale Garage,,18.5046,73.83135,,,,,,
851,30185,Jagtap Dairy,,18.59333,73.78437,,,,,,
33619,152071,Kawadenagar,,18.5174,73.90677,,,,,,
852,30187,Kalewadi Phata,,18.60435,73.77617,,,,,,
33620,153021,Navin Highway,,18.48071,73.80368,,,,,,
33621,153724,Rangehills Corner,,18.53876,73.83354,,,,,,
853,30193,Tathawade,,18.62915,73.7538,,,,,,
854,30184,Wakad Phata,,18.58773,73.78941,,,,,,
33622,150802,Cores Company,,18.75904,73.82135,,,,,,
33625,155051,Yerwada Post Office,,18.55825,73.89132,,,,,,
859,40168,Simla Office/Shivaji Nagar,,18.53078,73.84798,,,,,,
33627,154892,Vitbhatti Shivtarwadi,,18.34491,73.76909,,,,,,
860,40201,Engineering College,,18.52958,73.8586,,,,,,
33628,151965,Kanbe Phata,,18.70045,73.78829,,,,,,
861,40193,Tathawade,,18.62927,73.75391,,,,,,
33629,150699,Chaufula,,18.49791,74.0737,,,,,,
862,40190,Dange Chowk,,18.61466,73.76597,,,,,,
863,40184,Wakad Phata,,18.58784,73.78935,,,,,,
33633,151856,Kachara Depot Devachi Urali,,18.46648,73.95644,,,,,,
33634,151945,Kalyani Forge,,18.71693,73.84924,,,,,,
33635,150938,Dehu Phata,,18.67131,73.89177,,,,,,
33637,152152,Khanapur,,18.39931,73.73284,,,,,,
871,30189,Laxman Nagar,,18.61129,73.76856,,,,,,
33639,153555,Pune Vidhyapeeth Gate,,18.53876,73.83355,,,,,,
33641,151161,Gaikwadvasti Nasik Road,,18.70806,73.84844,,,,,,
33642,150635,Canal,,18.49742,73.93324,,,,,,
33643,150536,Bhosalevasti Uruli Kanchan,,18.48768,74.11617,,,,,,
33644,150140,Ambedkar Vasahat,,18.66643,73.77504,,,,,,
880,40192,Pawar Vasti,,18.62498,73.75747,,,,,,
33648,150732,Chinchwad Station,,18.63983,73.79398,,,,,,
33651,151191,Gandhinagar,,18.62918,73.80819,,,,,,
33654,153499,Pratiknagar,,18.5083,73.81044,,,,,,
33655,152554,Mahila Mandal,,18.49841,73.85005,,,,,,
33656,154133,Shikshaknagar,,18.50974,73.80345,,,,,,
33657,154492,Suyash Mangal Karyalay,,18.67321,73.90962,,,,,,
33658,153312,Pawarvasti Chikhali,,18.66587,73.81469,,,,,,
33659,152457,Loyala Highschool,,18.5415,73.82367,,,,,,
33661,150978,Dhanoragao,,18.66751,73.92538,,,,,,
894,30192,Pawar vasti,,18.62486,73.75737,,,,,,
33663,151502,Hadapsar Gadital,,18.50049,73.93852,,,,,,
33664,153086,Nhavi Sandas,,18.60559,74.15563,,,,,,
33666,154061,Shane Paradise socity,,18.51222,73.81708,,,,,,
33667,154288,Shubham Mangal Karyalay,,18.59593,73.9314,,,,,,
33668,152488,Magar College,,18.50338,73.95401,,,,,,
33671,153803,Rupeenagar,,18.67745,73.78242,,,,,,
33672,154275,Shreekrushna Mandir,,18.58801,73.81653,,,,,,
33674,151139,Fursungi,,18.47369,73.97508,,,,,,
33675,150168,Amrai,,18.42112,73.73003,,,,,,
33676,150426,Bhagwatvasti,,18.50697,73.76856,,,,,,
33677,152280,Krushna Mandir Suncity,,18.4749,73.81511,,,,,,
33679,153434,Poultry Farm Deccan,,18.73548,73.64508,,,,,,
33680,153696,Ramnagar Bopkhel,,18.58753,73.85876,,,,,,
33682,153052,NDA Hospital,,18.45774,73.75561,,,,,,
33684,152210,Kolhewadi,,18.44472,73.78528,,,,,,
33686,150162,Ammunition Factory Road,,18.56482,73.85051,,,,,,
33689,150863,Dattakrupa Mangal Karyalay,,18.54406,73.67467,,,,,,
33691,152655,Marado Company,,18.53859,73.80761,,,,,,
33692,151121,Fatimanagar,,18.50624,73.901,,,,,,
33694,151836,Judson Highschool,,18.685,73.72588,,,,,,
33696,151757,Jakat Naka Mohammadwadi,,18.49836,73.93336,,,,,,
33697,154874,Vishwakarma,,18.54328,73.7868,,,,,,
930,30181,Sangvi Phata,,18.57265,73.80717,,,,,,
33698,153449,Poultry Farm Saurabh,,18.41319,73.67311,,,,,,
931,40181,Sangvi Phata,,18.5725,73.8074,,,,,,
33699,150432,Bhairavnath Mandir Chande,,18.55644,73.70861,,,,,,
33700,153691,Ramdas Maral,,18.45735,73.89082,,,,,,
933,30183,Rakshak Chowk,,18.58116,73.79858,,,,,,
934,40183,Rakshak Chowk,,18.58108,73.79885,,,,,,
33702,154514,Tadiwala Road,,18.53025,73.87487,,,,,,
33703,152470,M 23,,18.55796,73.8956,,,,,,
33704,151116,Farshi Karkhana,,18.53119,73.91433,,,,,,
33705,151838,Juna Motor Stand,,18.50919,73.87264,,,,,,
33706,153324,PC Pole Company,,18.63878,74.05447,,,,,,
33707,150355,Balewadigaon,,18.57624,73.77983,,,,,,
33708,152423,Limb Center,,18.504,73.88766,,,,,,
33709,153079,Netajinagar,,18.48808,73.89281,,,,,,
33710,154052,Shahu Colony,,18.4871,73.81879,,,,,,
33711,153384,Pimpri Sandas,,18.60893,74.13185,,,,,,
33715,152544,Mahaveer Company,,18.26969,73.88023,,,,,,
948,30214,Dnyaneshwar Society,,18.48457,73.84965,,,,,,
33719,153470,Power House Khadki,,18.56473,73.85073,,,,,,
33720,153947,Sangvi Phata,,18.57315,73.80692,,,,,,
33722,151020,Dislevasti,,18.60428,73.72888,,,,,,
33724,151912,Kalewadi Pump,,18.66789,73.8902,,,,,,
33726,154930,Vykentesh Colony,,18.48741,73.82416,,,,,,
33727,153068,Nehrunagar Corner,,18.6303,73.81979,,,,,,
33729,153455,Poultry Farm Trimurti,,18.40939,73.67621,,,,,,
33730,153412,Police Vasahat Gokhalenager,,18.52348,73.82519,,,,,,
33731,151372,Godown Katraj Kondhwa Road,,18.45374,73.88757,,,,,,
33732,152627,Mandharevasti,,18.39915,73.76848,,,,,,
33733,153268,Pashan Tale,,18.5364,73.78098,,,,,,
33734,153456,Poultry Farm Venkteshwara,,18.40669,73.75635,,,,,,
966,40220,Laxmi Narayan,,18.49649,73.85823,,,,,,
33737,150651,Chaitanya Sabhagruh,,18.63451,73.77892,,,,,,
33738,151008,Diamond  Miter Company,,18.53388,73.92381,,,,,,
33739,152409,Laxminagar Corner,,18.49228,73.84987,,,,,,
33740,152452,Lonkarvasti,,18.44609,73.89319,,,,,,
33741,152460,Lucky Farm,,18.40337,73.69068,,,,,,
33743,153532,Pulachiwadi,,18.32395,73.85489,,,,,,
976,30222,Hirabaug,,18.50447,73.85479,,,,,,
33744,152917,Muncipal Dawakhana,,18.5294,73.83285,,,,,,
33745,154691,UP Hotel,,18.54676,73.87404,,,,,,
977,40222,Hirabaug,,18.50442,73.85478,,,,,,
33746,150431,Bhairavnath Mandir Chande,,18.55636,73.70865,,,,,,
33748,150709,Chikhali,,18.68356,73.81434,,,,,,
33749,151774,Janakbaba Darga,,18.56435,73.94287,,,,,,
33751,154743,Vadgaon Sheri Phata,,18.5589,73.91189,,,,,,
33752,150227,ARDE Colony,,18.53353,73.79376,,,,,,
33753,152430,Lodha Hospital,,18.48393,73.8009,,,,,,
33755,153266,Pashan Naka Bus Stand,,18.53804,73.79736,,,,,,
33756,150961,Devi Link,,18.62811,73.79662,,,,,,
33757,150988,Dhayareshwar Industries,,18.4538,73.82041,,,,,,
33759,153843,Sai Chowk Navisangvi,,18.57848,73.81587,,,,,,
33760,152637,Manikbaug,,18.47327,73.82169,,,,,,
33761,152892,Moze Vidyalay Alandi Road,,18.63791,73.87474,,,,,,
33762,151569,Hinjawadi Jakat Naka Mumbai Road,,18.59128,73.75759,,,,,,
33763,151894,Kalas,,18.5799,73.87621,,,,,,
33764,154250,Shivtejnagar Chowk,,18.6626,73.80805,,,,,,
33766,151698,Insurance Company,,18.56622,73.77116,,,,,,
33767,150215,Appughar Corner,,18.66151,73.76563,,,,,,
33769,152324,Kundan Hotel,,18.6256,73.80538,,,,,,
33770,151114,Farm House Mulkhed,,18.53849,73.68491,,,,,,
33771,154113,Shelkevasti,,18.65935,73.72792,,,,,,
33772,150767,Chutkevasti,,18.50115,73.74443,,,,,,
33775,153379,Pimpri Court,,18.63731,73.80471,,,,,,
33776,151984,Karan Greens,,18.49273,73.78873,,,,,,
33777,153966,Santoshi Mata Mandir Alandi,,18.67649,73.90242,,,,,,
33778,154910,Vitthal Mandir Mhasolkar,,18.63325,73.81236,,,,,,
33779,150334,Bakwoulf Colony,,18.62969,73.79381,,,,,,
33780,150388,Bank Of India Dehuroad,,18.6781,73.73594,,,,,,
33781,150463,Bhandarkar Institute,,18.51988,73.83039,,,,,,
33782,151328,Ghata Khali,,18.82453,73.87567,,,,,,
33783,154160,Shindewadi Satara Road,,18.37621,73.85545,,,,,,
33784,154183,Shitolevasti Lavle,,18.54152,73.71232,,,,,,
33785,155054,Yewalewadi,,18.43619,73.89653,,,,,,
33786,154812,Vastu Udyog,,18.63312,73.81464,,,,,,
33787,151814,Jilha Parishad Shala,,18.34718,73.79279,,,,,,
33788,152898,MSB Pumping Station,,18.53312,73.7934,,,,,,
1021,30311,Pune Station,,18.52699,73.87281,,,,,,
33789,154264,Shiwne,,18.47025,73.78817,,,,,,
33790,151333,Ghodyachi Paga,,18.47239,73.77053,,,,,,
33791,151589,Holkarwadi,,18.438,73.93921,,,,,,
33792,151277,Garden City,,18.67798,73.74711,,,,,,
33794,153149,Ovhalvasti,,18.34433,73.8483,,,,,,
33797,151373,Godown Katraj Kondhwa Road,,18.45377,73.88638,,,,,,
33798,154982,Warje,,18.48002,73.80483,,,,,,
33799,153858,Sai Corner,,18.59213,73.89208,,,,,,
1032,40232,Walhekarwadi Corner,,18.63053,73.77729,,,,,,
1034,40233,Chaphekar Chowk,,18.62983,73.7803,,,,,,
33802,154384,Spine Road Chowk,,18.66749,73.79722,,,,,,
33804,153461,Power House Ghotawade,,18.52773,73.66948,,,,,,
33805,151365,Godambevasti,,18.53845,73.68509,,,,,,
1038,40237,Shahu Chowk,,18.50962,73.85812,,,,,,
33806,152353,Lagadmala,,18.45896,73.80929,,,,,,
33807,154559,Tapkirnagar Charholi,,18.65986,73.89532,,,,,,
33808,154620,Theur Factory,,18.52527,74.0439,,,,,,
33810,151896,Kalashankar,,18.51938,73.90653,,,,,,
33811,154834,Vijaynagar,,18.61841,73.79201,,,,,,
33813,154718,Vaddhara Bandhara,,18.46556,73.91659,,,,,,
33814,151715,Jadhavwadi Phata Chikhali,,18.6797,73.81936,,,,,,
33815,154289,Shubham Mangal Karyalay,,18.59595,73.93129,,,,,,
1048,30267,Kumbhar Wada,,18.52457,73.85868,,,,,,
33817,151827,Joona Hinjawadi Jakat Naka,,18.59095,73.74679,,,,,,
33818,154182,Shitolevasti Lavle,,18.54137,73.71218,,,,,,
33819,154822,Velu Phata,,18.37021,73.8539,,,,,,
33820,151766,Jamadarvasti,,18.61095,74.12613,,,,,,
33821,150503,Bhau Patil Chowk,,18.56606,73.83141,,,,,,
33822,154605,Tendulkarvasti,,18.48854,74.06377,,,,,,
33824,153526,P And T Colony,,18.4959,73.86927,,,,,,
33825,154730,Vadgaon Budruk Phata,,18.46715,73.81954,,,,,,
33826,151969,Kanifnath Society,,18.49529,73.93273,,,,,,
33828,150053,Agam Mandir Paytha,,18.44866,73.85321,,,,,,
33832,152681,Maruti Mandir Sambhajinagar,,18.66479,73.79892,,,,,,
33833,153286,Patilnagar,,18.68735,73.8074,,,,,,
33834,153091,Nigde Phata,,18.38776,73.69353,,,,,,
33835,153056,Neeta Park,,18.54579,73.88803,,,,,,
33838,154350,Someshwarwadi Phata,,18.55076,73.80553,,,,,,
1071,40313,Gadital,,18.52712,73.86443,,,,,,
33839,154357,Sonal Hall,,18.51045,73.83496,,,,,,
33840,153821,Sadu Nanavasti,,18.50666,73.93991,,,,,,
33841,154992,Warpe Farm,,18.43373,73.64864,,,,,,
33842,153355,Phulgaon,,18.65735,74.01187,,,,,,
1075,40239,Nehru stadium,,18.50068,73.85761,,,,,,
33843,150326,Bahuligaon,,18.4306,73.65799,,,,,,
1076,40227,Shaniwar Wada,,18.51988,73.85623,,,,,,
1078,30219,Mitramandal Sabhagraha,,18.49722,73.85443,,,,,,
33846,151426,Gorhe Bk,,18.4214,73.75684,,,,,,
33847,154726,Vadgaon BK Phata,,18.4671,73.81823,,,,,,
33848,151052,Dr Sayyad Dawakhana,,18.56476,73.83104,,,,,,
33849,154223,Shivapurwada,,18.34094,73.83905,,,,,,
33850,150477,Bharat English School,,18.57377,73.77509,,,,,,
33851,150319,Bahirwade Kridangan,,18.66176,73.80795,,,,,,
33852,150145,Ambegaon Phata,,18.43505,73.84458,,,,,,
33853,150199,Annapurna,,18.66201,73.78108,,,,,,
33854,150243,Arvi Phata,,18.35029,73.81895,,,,,,
1087,40238,Shivaji Maratha,,18.50579,73.85871,,,,,,
33855,151061,Dudulgaon,,18.67549,73.88115,,,,,,
33856,151065,Durgesh Mandir,,18.65701,73.76115,,,,,,
1088,30317,Elpro Company,,18.63096,73.78313,,,,,,
33858,153492,Prakash Chicken Center,,18.50862,73.84386,,,,,,
33859,154705,Uttamnagar,,18.46043,73.77238,,,,,,
33861,153685,Rama Krushi Rasayan Karkhana,,18.48884,74.03101,,,,,,
33863,153655,Rajesh Socity Corner,,18.44852,73.86879,,,,,,
33865,150770,Cipla Center,,18.48555,73.79846,,,,,,
33868,151160,Gaikwadvasti Nasik Road,,18.6963,73.84771,,,,,,
33869,153303,Paud Phata Paud Road,,18.50703,73.82377,,,,,,
33871,150519,Bhilarewadi Kalyan,,18.34747,73.75619,,,,,,
1104,30336,Savitribai Phule Udyan,,18.59187,73.78281,,,,,,
1105,40336,Savitribai Phule Udyan,,18.59209,73.78276,,,,,,
33874,153480,Power House Tulapur,,18.63271,74.04149,,,,,,
1106,30337,Kaspate Chowk,,18.58993,73.77865,,,,,,
1107,40337,Kaspate Chowk,,18.58972,73.77843,,,,,,
1108,30338,Mankar Chowk,,18.58967,73.77426,,,,,,
1109,40338,Mankar Chowk,,18.58975,73.77443,,,,,,
33877,154883,Vitbhatti Nere,,18.61997,73.69393,,,,,,
1110,30339,Mont Vert Society,,18.59004,73.76961,,,,,,
1111,40339,Mont Vert Society,,18.59014,73.76979,,,,,,
33879,152342,Kusgaon,,18.33112,73.82033,,,,,,
33880,152783,MIDC Circle,,18.76433,73.68255,,,,,,
1114,30341,Wakad Chowk,,18.59238,73.76153,,,,,,
33882,150607,Brahma Chaitanya,,18.4681,73.83294,,,,,,
1115,40341,Wakad Chowk,,18.59249,73.76175,,,,,,
33883,151796,JCB,,18.77665,73.69219,,,,,,
1116,30342,Savatamali mandir,,18.59177,73.75415,,,,,,
33884,152787,MIDC Pimpri,,18.64335,73.80763,,,,,,
1117,40342,Savtamali Mandir,,18.59203,73.75438,,,,,,
33885,152858,Mordari Phata,,18.34407,73.77133,,,,,,
33886,152500,Mahadev Mandir Mehendale Garage,,18.50558,73.8326,,,,,,
33887,152768,Mhaskevasti,,18.58725,73.87523,,,,,,
33889,152003,Karve Nagar,,18.48883,73.81436,,,,,,
33890,152381,Lakudvasti,,18.51125,73.94658,,,,,,
33891,153939,Sangrun Phata,,18.40549,73.68342,,,,,,
33894,152816,Minilec Company,,18.50715,73.67553,,,,,,
33896,151309,Gavtevasti,,18.73731,73.85764,,,,,,
33897,151910,Kalewadi Phata,,18.60385,73.77746,,,,,,
33898,152129,Khadi Machine Gujarwadi,,18.43277,73.87149,,,,,,
33899,152529,Maharshinagar,,18.49205,73.86243,,,,,,
33901,151278,Garisson Engineering,,18.45351,73.75324,,,,,,
33902,151668,Indrayaninagar Corner,,18.62956,73.83265,,,,,,
33903,154900,VIT College Hostel,,18.45949,73.87774,,,,,,
33904,153488,Pradhikaran Police Chowky,,18.65089,73.76737,,,,,,
33905,151320,Ghanesh Peth,,18.51984,73.86144,,,,,,
33906,154013,Sathe Biscuit,,18.57056,73.87894,,,,,,
33907,150703,Chavannagar,,18.54442,73.82407,,,,,,
33908,151014,Digambar Marble,,18.58295,73.76082,,,,,,
33909,153062,Nehrunagar,,18.62984,73.81994,,,,,,
33910,150244,Arvi Phata,,18.35032,73.81896,,,,,,
33911,153395,PK Chowk,,18.59798,73.79765,,,,,,
33912,154701,Uruli Kanchan,,18.48756,74.12985,,,,,,
33913,152991,Narayaninagar,,18.46063,73.84146,,,,,,
33915,152589,Malyachamala,,18.48895,74.03796,,,,,,
33916,153318,Pawle Chowk,,18.52191,73.85817,,,,,,
33918,151458,Gruhaprakalp,,18.70835,73.68234,,,,,,
33921,152691,Master Bakery,,18.63297,73.81682,,,,,,
33922,154656,Trimurti Garden,,18.45234,73.844,,,,,,
33923,152837,Mohammadwadigaon,,18.46984,73.92149,,,,,,
33924,151759,Jakat Naka Pisoli,,18.45177,73.89187,,,,,,
33925,154421,ST Stand Indori,,18.73522,73.70885,,,,,,
1158,30361,Ganesh Nagar,,18.61304,73.7627,,,,,,
33926,152505,Mahadev Mandir Paduka,,18.69298,73.75292,,,,,,
1160,40361,Ganesh Nagar,,18.61304,73.76279,,,,,,
33930,153487,Pradhikaran Police Chowky,,18.65072,73.76732,,,,,,
9354,129910,Elpro Company,,18.63299,73.78536,,,,,,
33932,151235,Ganeshnagar Talawade Road,,18.67866,73.78774,,,,,,
33934,154170,Shiroli,,18.82901,73.87666,,,,,,
33935,154200,Shivaji Maharaj Putla Dapodi,,18.57619,73.83068,,,,,,
33936,151632,IMD Colony,,18.53785,73.80475,,,,,,
33937,151133,Fuel Depot,,18.49025,74.01374,,,,,,
33939,151360,Girls Hostel,,18.47033,73.93267,,,,,,
33940,154889,Vitbhatti Prayagdham,,18.49769,74.11953,,,,,,
33941,150866,Dattamandir Marnewadi Road,,18.47885,73.65573,,,,,,
33944,152923,Mundhwa Gaon,,18.53247,73.93289,,,,,,
33945,152223,Kondhwa Dhawde,,18.45673,73.76937,,,,,,
33946,152234,Kondhwale Dairy,,18.52427,73.58799,,,,,,
1179,30371,Sane Chowk,,18.67009,73.79827,,,,,,
33947,154131,Shikshaknagar,,18.50734,73.80052,,,,,,
1180,40371,Sane Chowk,,18.66997,73.79833,,,,,,
33948,151429,Gorhe Kh,,18.40593,73.75187,,,,,,
1181,30372,Mhetre Vasti,,18.66959,73.79396,,,,,,
33950,150626,Bungalow Number 116,,18.56484,73.88033,,,,,,
1182,40372,Mhetre Vasti,,18.67004,73.79218,,,,,,
33951,151259,Ganga Village,,18.48434,73.93163,,,,,,
33952,152514,Mahadevnagar Manjari,,18.5067,73.95434,,,,,,
33955,153588,Radhika Society,,18.44701,73.82074,,,,,,
33956,153991,Sasanenagar,,18.49282,73.93219,,,,,,
1188,40376,Dhayareswar Mandir,,18.44228,73.81294,,,,,,
33957,153697,Ramnagari,,18.44886,73.84341,,,,,,
1189,30377,Benkar Vasti,,18.44677,73.81429,,,,,,
1190,40377,Benkarvasti,,18.44383,73.81581,,,,,,
33958,151281,Garmal,,18.45576,73.81182,,,,,,
33959,151439,Govind Mangal Karyalay,,18.54721,73.80458,,,,,,
33960,153749,Rautvasti,,18.45647,73.96081,,,,,,
33961,153872,Saipuram Corner,,18.44724,73.81184,,,,,,
33962,154034,Sayli Restaurant,,18.54215,73.77709,,,,,,
33963,154877,Vitbhatti Chande,,18.55376,73.70183,,,,,,
33966,153605,Rahatnigaon,,18.60293,73.79578,,,,,,
1198,30381,Gaarmal,,18.45725,73.81174,,,,,,
1199,40381,Gaarmal,,18.45733,73.81191,,,,,,
33968,153868,Sai Palace,,18.45571,73.87195,,,,,,
33970,151343,Ghorpadi Shala,,18.52814,73.90035,,,,,,
33971,152402,Laxmannagar,,18.6113,73.76842,,,,,,
33974,150373,Banacha Odha,,18.62741,73.86519,,,,,,
33975,150276,Autadewadi Phata,,18.44331,73.93609,,,,,,
33976,150043,Aditya Garden City,,18.49062,73.79036,,,,,,
33977,150045,Aditya Hotel,,18.57347,73.698,,,,,,
33979,153571,Purva Arcade,,18.593,73.89234,,,,,,
33980,154046,Shadawal Baba Darga,,18.54438,73.87799,,,,,,
33981,154171,Shitaladevi Chowk Guruwarpeth,,18.50862,73.85973,,,,,,
33983,152090,Kemsewadi,,18.58482,73.6174,,,,,,
33984,153329,Peacock Garden,,18.45551,73.76748,,,,,,
33985,152352,Lagadmala,,18.45885,73.80939,,,,,,
33987,152773,Mhasoba Mandir,,18.56894,73.867,,,,,,
33988,154215,Shivajinagar,,18.53257,73.84926,,,,,,
33989,151600,Hotel Sagar,,18.33602,73.85288,,,,,,
33990,151538,Harpalevasti Nhavi Sandas Road,,18.61293,74.12361,,,,,,
33992,151063,Dugad Farm,,18.44479,73.85338,,,,,,
33994,152074,Kawdipat,,18.49203,74.00058,,,,,,
33995,152187,Kirkatwadi,,18.44285,73.78997,,,,,,
33996,150862,Dattakrupa Mangal Karyalay,,18.54396,73.67467,,,,,,
33997,151533,Hariprasad Bungalow,,18.45226,73.86384,,,,,,
33999,152616,Ma Na Pa Shala Wakad,,18.59995,73.76377,,,,,,
34000,151795,JCB,,18.7766,73.69208,,,,,,
34001,153539,Punawale,,18.63902,73.74771,,,,,,
34002,154660,Trinity College,,18.42402,73.90194,,,,,,
1235,30406,Karve Nagar,,18.48934,73.81436,,,,,,
1236,40406,Karve Nagar,,18.48873,73.81414,,,,,,
34004,153975,Sapras Post,,18.54998,73.86904,,,,,,
34005,154287,Shubham Hotel,,18.45465,73.83696,,,,,,
1239,30408,Gandhi Bhavan Phata,,18.49581,73.81329,,,,,,
34008,150346,Balaji Park,,18.44972,73.91051,,,,,,
1241,30409,Kothrud Stand,,18.50002,73.81357,,,,,,
34009,150851,Dapodi Mantri Niketan,,18.5791,73.8296,,,,,,
34011,152310,Kumar Park,,18.48095,73.86568,,,,,,
1244,40410,Karve Putla,,18.50166,73.81499,,,,,,
34013,151818,Jiveshwar Society,,18.64472,73.77258,,,,,,
34014,150068,Ahiregaon Phata,,18.45494,73.74468,,,,,,
34015,150116,Alhatvasti,,18.67627,73.85442,,,,,,
34016,150383,Baner Phata Aundh Road,,18.55,73.80992,,,,,,
34017,151466,Gujrat Colony,,18.50508,73.81187,,,,,,
34018,151560,Hingne,,18.4806,73.82534,,,,,,
34019,153744,Rasrang Sweet Corner,,18.63316,73.81584,,,,,,
34020,153673,Rakshak Chowk,,18.58108,73.79861,,,,,,
34021,150460,Bhandari Niwas,,18.67388,74.04088,,,,,,
1255,40421,Ramoshiwadi,,18.52814,73.83002,,,,,,
34023,153240,Parmarnagar,,18.50255,73.90078,,,,,,
34024,154206,Shivaji Maharaj Putla Sasanenagar,,18.49481,73.93259,,,,,,
34025,154273,Shree Industries,,18.45096,73.82938,,,,,,
34026,152497,Mahabali Chowk,,18.6596,73.80753,,,,,,
34027,154089,Sharwari Complex,,18.62334,73.68675,,,,,,
34028,151883,Kakdevasti Prayagdham,,18.4948,74.12718,,,,,,
34030,154627,Thorve School,,18.45404,73.85137,,,,,,
34031,154895,Vitbhatti Vikasnagar,,18.67085,73.73145,,,,,,
34033,154326,Siporex Company Main Gate,,18.52344,73.90965,,,,,,
34034,151397,Gokul Hotel,,18.62463,73.80334,,,,,,
1267,40414,Karve Bungalow,,18.5093,73.83044,,,,,,
34036,154946,Waghere College,,18.35522,74.02847,,,,,,
34037,152885,Motherson Company,,18.61792,73.70727,,,,,,
1270,30417,Bhandarkar Road,,18.51945,73.83035,,,,,,
34039,153190,Pandit Petrol Pump,,18.61119,73.76063,,,,,,
34040,153731,Rangehills Post Office,,18.55241,73.84327,,,,,,
34042,150293,Aynalvasti,,18.547,73.69268,,,,,,
34043,151276,Garden City,,18.67795,73.74695,,,,,,
1276,30431,Alaka Theatre,,18.51267,73.8436,,,,,,
34044,151524,Hanuman Mandir Indori,,18.73482,73.71896,,,,,,
34045,154060,Shane Paradise socity,,18.51205,73.8172,,,,,,
34046,152934,Murkutevasti,,18.55838,73.79238,,,,,,
34047,153737,Ranwarevasti,,18.54816,73.77044,,,,,,
1279,40432,Ganjave Chowk,,18.51098,73.84354,,,,,,
34048,154759,Vaishnavi Collection,,18.66303,73.80693,,,,,,
34049,151346,Ghotawadegaon,,18.54908,73.66254,,,,,,
34050,151784,Jawalkar Hospital,,18.45678,74.06992,,,,,,
1284,40435,Rajendranagar corner,,18.50501,73.84279,,,,,,
34052,153570,Purva Arcade,,18.59298,73.89235,,,,,,
1285,41435,Rajendranagar corner,,18.50474,73.84293,,,,,,
34055,150923,Deccan Gymkhana,,18.51697,73.84167,,,,,,
1287,40436,Ramkrishna Math,,18.50043,73.84484,,,,,,
1288,30437,Water Purification centre,,18.49843,73.84148,,,,,,
34056,151895,Kalas,,18.57998,73.87644,,,,,,
34057,153053,NDA Hospital,,18.45818,73.75624,,,,,,
1289,40437,Water Purification centre,,18.49793,73.84096,,,,,,
1290,30438,Ganesh Mala,,18.49501,73.83696,,,,,,
1295,40440,Vitthalwadi Jakat Naka,,18.4907,73.83287,,,,,,
34063,152211,Kolhewadi,,18.44475,73.78527,,,,,,
34064,152874,Morwadi Corner,,18.6338,73.8035,,,,,,
34065,154959,Wakad Chowk,,18.59229,73.76192,,,,,,
34066,151902,Kalbhorvasti,,18.48843,74.06031,,,,,,
34067,153368,Pimplenilakh Shala,,18.57261,73.79506,,,,,,
34068,155046,Yerawada Press,,18.56386,73.88545,,,,,,
1301,40443,Poultry Farm,,18.45135,73.81123,,,,,,
1303,40444,Dhayari Maruti Mandir,,18.44236,73.8097,,,,,,
34071,152820,Mitra Mandal Sabhagruha,,18.49736,73.85418,,,,,,
34072,153281,Patil Colony,,18.4626,73.8148,,,,,,
34073,154044,Servants Quarters,,18.45153,73.74739,,,,,,
34075,150288,Avsarwadi,,18.36021,73.78838,,,,,,
34077,150845,Dange Chowk,,18.61539,73.76541,,,,,,
34078,150901,Daulatnagar Mumbai Pune Bypass,,18.47373,73.81005,,,,,,
34079,151006,Dhumewadi,,18.39128,74.01416,,,,,,
34080,152937,Mutton Market rangehills,,18.55502,73.84324,,,,,,
1312,30450,Dnyaneshwar Paduka Chowk,,18.52696,73.84245,,,,,,
34082,150630,Burkegaon,,18.62041,74.10657,,,,,,
34083,151907,Kalewadi,,18.61673,73.78958,,,,,,
34085,152623,Mandai Stand,,18.51347,73.85607,,,,,,
1317,30385,Vadgaon Phata,,18.46579,73.81685,,,,,,
1318,40385,Vadgaon Phata,,18.46607,73.81654,,,,,,
1319,30500,Sai Chowk Pimple Saudagar,,18.59321,73.78613,,,,,,
34087,153741,Rashmi Apartment,,18.53938,73.89305,,,,,,
34088,152808,Military Hospital Khadki,,18.55616,73.84239,,,,,,
1320,40500,Sai Chowk Pimple Saudagar,,18.59334,73.78581,,,,,,
34089,151318,GF Filters,,18.49434,73.66565,,,,,,
1322,30451,Bhosari Gaon,,18.6222,73.85137,,,,,,
34090,152915,Mulkhed,,18.53983,73.68683,,,,,,
1323,40451,Bhosari Gaon,,18.62425,73.85129,,,,,,
34091,152633,Mangdewadi Petrol Pump,,18.43628,73.86047,,,,,,
34093,154885,Vitbhatti Pashan,,18.54599,73.77645,,,,,,
34094,153422,Posco Company,,18.78744,73.69419,,,,,,
34095,154540,Tale Male,,18.34616,73.7866,,,,,,
34096,150296,Azadnagar Kothrud,,18.50417,73.80739,,,,,,
1329,40454,shitalbaug,,18.6165,73.84464,,,,,,
34098,154815,Vataremala,,18.52385,73.90628,,,,,,
34100,154534,Talegaon Nagarparishad,,18.72561,73.68055,,,,,,
34102,154508,Swargate Depo,,18.50053,73.85969,,,,,,
34105,154817,Vedant Dairy,,18.65438,73.76156,,,,,,
34106,152673,Maruti Mandir Dattanagar,,18.44964,73.85252,,,,,,
34107,154821,Velu Phata,,18.37019,73.85404,,,,,,
34109,150624,Bungalow Number 105,,18.53337,73.89188,,,,,,
34110,150986,Dhawdevasti,,18.62995,73.85073,,,,,,
1342,30461,Kalpataru Society,,18.60184,73.81633,,,,,,
34111,152741,Mental Hospital,,18.56423,73.88389,,,,,,
1343,40461,Kalpataru Society,,18.60192,73.81614,,,,,,
34112,154949,Waghjai Mandir,,18.41233,73.85831,,,,,,
1344,30462,Javalkar Nagar,,18.60012,73.81313,,,,,,
34113,151690,Ingalevasti,,18.4655,73.77674,,,,,,
1345,40462,Javalkar Nagar,,18.60016,73.81311,,,,,,
1346,30463,Kate Patil Chowk,,18.59908,73.80743,,,,,,
34115,153972,Sant Tukaramnagar,,18.62002,73.81762,,,,,,
1347,40463,Kate Patil Chowk,,18.59935,73.80725,,,,,,
34116,153184,Pandavnagar Pashan,,18.54394,73.78273,,,,,,
34117,153653,Raje Shivajinagar Phata,,18.66565,73.82544,,,,,,
1349,40464,Govind Yashada Chowk,,18.59747,73.80348,,,,,,
34118,153087,NIBM Corner,,18.47899,73.89081,,,,,,
1350,30465,"Vishwashanti Colony,PK Chowk",,18.5981,73.79907,,,,,,
1351,40465,"Vishwashanti Colony,PK Chowk",,18.59813,73.79897,,,,,,
1352,30466,"Rose Land, Nisarga  Nirmiti Society",,18.59661,73.7944,,,,,,
34120,154330,Smashanbhumi,,18.45388,73.88613,,,,,,
34121,154925,Vitthalwadi Sinhagad Road,,18.48435,73.82796,,,,,,
1353,40466,"Rose Land, Nisarga  Nirmiti Society",,18.5972,73.79432,,,,,,
34122,153875,Sairatna,,18.53915,73.98976,,,,,,
1354,30467,Kokane Chowk,,18.59672,73.79136,,,,,,
34123,150119,Alpana Talkies,,18.51593,73.864,,,,,,
1355,40467,Kokane Chowk,,18.59669,73.79133,,,,,,
34124,154968,Waki Kh,,18.79962,73.86955,,,,,,
1356,30468,Shivar Chowk,,18.59618,73.78934,,,,,,
34125,151685,Ingale Hospital,,18.61872,73.79287,,,,,,
1357,40468,Shivar Chowk,,18.59605,73.78924,,,,,,
34127,150174,Anandnagar Kothrud,,18.50969,73.8145,,,,,,
34128,151293,Gate Number 10,,18.45016,73.76358,,,,,,
34130,151865,Kadamvasti Loni,,18.48984,74.01665,,,,,,
34131,152979,Nanded Phata,,18.45475,73.79673,,,,,,
34132,154166,Shirke Company,,18.52903,73.90606,,,,,,
1364,30464,Govind Yashada Chowk,,18.5973,73.80354,,,,,,
34133,150895,Dattawadi Mhasoba Chowk,,18.5015,73.83921,,,,,,
34134,153527,PAndT Colony,,18.49208,73.86935,,,,,,
34137,154903,Vithai Warehouse,,18.56244,73.98756,,,,,,
34139,153758,Raviraj Hotel,,18.58332,73.82428,,,,,,
34141,150125,Amarjai Mandir,,18.69751,73.70587,,,,,,
1374,30475,Juna Hinjawadi Jakat Naka,,18.59082,73.74979,,,,,,
34142,150022,Aai mata Mandir,,18.47102,73.87523,,,,,,
1375,40475,Joona Hinjewadi Jakat Naka,,18.59095,73.75045,,,,,,
34145,150123,Amalewadi,,18.54427,73.64492,,,,,,
34146,154172,Shitaladevi Chowk Guruwarpeth,,18.50867,73.86005,,,,,,
34147,154544,Talwade,,18.69677,73.79162,,,,,,
34149,150399,Bauddhavasti,,18.34289,73.79472,,,,,,
34151,150652,Chaitanya Sabhagruh,,18.63455,73.77901,,,,,,
34152,151976,Karachi Chowk,,18.62131,73.8013,,,,,,
34153,152844,Mohannagar Chinchwad,,18.64264,73.79746,,,,,,
34154,150422,Bhagvatinagar,,18.54351,73.77604,,,,,,
34156,150378,Banergaon Odha,,18.56196,73.78418,,,,,,
34157,151136,Fujitsu Company,,18.70649,73.79114,,,,,,
34160,150939,Dehuroad Bazar,,18.68161,73.73068,,,,,,
34161,153701,Ramnagar Rahatni,,18.60323,73.79242,,,,,,
34163,153421,Popularnagar,,18.48475,73.7998,,,,,,
34164,151168,Gaikwadwadi,,18.42708,73.66659,,,,,,
34165,151610,Hyderabad Cement Company,,18.45117,73.8983,,,,,,
34166,151609,Hyderabad Cement Company,,18.45102,73.89853,,,,,,
34167,150239,Arsenal Factory Gate,,18.57317,73.85946,,,,,,
1400,30510,Shivtejnagar,,18.66674,73.79955,,,,,,
1401,40510,Shivtejnagar,,18.66624,73.79947,,,,,,
34170,151438,Govind Halwai Chowk,,18.5135,73.86186,,,,,,
34171,151799,Jehangir Hospital,,18.52977,73.87591,,,,,,
34172,151483,Gurudatta Fabricators,,18.76041,73.67555,,,,,,
34173,150786,COD Depot,,18.6997,73.75962,,,,,,
34174,153614,Raikar vasti,,18.45415,73.81169,,,,,,
34175,153941,Sangurdi Phata,,18.72207,73.76215,,,,,,
34176,153672,Rakesh Sweet Mart,,18.6351,73.84362,,,,,,
34177,154020,Sawant College,,18.47246,73.93195,,,,,,
34178,153285,Patilnagar,,18.68729,73.80737,,,,,,
34179,150794,Collector Kacheri,,18.52426,73.87216,,,,,,
34180,150307,Bagadevasti,,18.49432,74.12997,,,,,,
34181,150717,Chincholi,,18.68973,73.74957,,,,,,
34182,153899,Samadhi Mandir,,18.56534,73.77331,,,,,,
34183,154732,Vadgaon Budruk Phata,,18.46714,73.81944,,,,,,
34185,150700,Chavanmala,,18.44706,73.80372,,,,,,
34186,151469,Gul Aali,,18.51054,73.8657,,,,,,
34189,151770,Jambhulkarnagar,,18.49477,73.90011,,,,,,
34190,153210,Panyachi Taki Markal,,18.67066,73.98043,,,,,,
34193,154153,Shindevasti Jahangirnagar,,18.51597,73.91536,,,,,,
34194,151656,Indraprabha,,18.66727,73.72797,,,,,,
34195,153890,Sakhrevasti,,18.60179,73.73321,,,,,,
34196,151776,Janwadi,,18.53019,73.82336,,,,,,
34197,152801,Mile Dagad Kramank 23 Nagar Road,,18.63555,74.04488,,,,,,
1431,30525,Aaple Ghar,,18.56742,73.94761,,,,,,
34200,153037,Navsahayadri,,18.49469,73.83037,,,,,,
1432,40525,Aaple Ghar,,18.56748,73.94789,,,,,,
1433,30521,TATA guard room,,18.56295,73.92864,,,,,,
34201,153587,Radha Swami Satsang,,18.73517,73.80027,,,,,,
34202,154258,Shiwapurbaug,,18.35273,73.85239,,,,,,
1435,40521,TATA guard room,,18.56283,73.92867,,,,,,
34204,151093,Engineering College,,18.53009,73.85667,,,,,,
1437,30522,Chandannagar,,18.56346,73.93286,,,,,,
34205,151522,Hanuman Chowk,,18.54537,73.66904,,,,,,
34207,154955,wahilenagar,,18.67415,73.88543,,,,,,
1439,40522,Chandannagar,,18.56331,73.93309,,,,,,
1441,30523,Kharadi Bypass,,18.5624,73.93782,,,,,,
1442,30516,Shastri Nagar,,18.55177,73.89567,,,,,,
1443,40523,Kharadi Bypass,,18.56237,73.93772,,,,,,
34211,152811,Military Hospital Rangehills,,18.55643,73.84146,,,,,,
34212,151767,Jambe,,18.64103,73.72188,,,,,,
1445,30524,Janakbaba Darga,,18.56545,73.94395,,,,,,
34213,150253,Ashoknagar Dehu,,18.68598,73.7477,,,,,,
1446,30515,Wadia Bungalow,,18.54847,73.8922,,,,,,
34214,150084,Akole Bus Stop,,18.52898,73.57201,,,,,,
1447,40515,Wadia Bungalow,,18.54839,73.89239,,,,,,
34216,154853,Vinayak Hospital,,18.48599,73.79661,,,,,,
1449,30517,Ramwadi Jakat Naka,,18.55486,73.90513,,,,,,
34217,152098,Kendriya Vidyalay Lohgaon,,18.59172,73.91687,,,,,,
1450,30519,Vimannagar Corner,,18.56126,73.91945,,,,,,
34218,152724,Medi Point,,18.56504,73.80238,,,,,,
1451,40517,Ramwadi Jakat Naka,,18.55471,73.90507,,,,,,
34219,150842,Dandekar Pul,,18.50213,73.84542,,,,,,
1452,40519,Vimannagar Corner,,18.56112,73.91965,,,,,,
34220,151382,Gokhale Hall,,18.51406,73.84918,,,,,,
1453,30520,Pachwa mail,,18.56232,73.92319,,,,,,
34222,150730,Chinchwadgaon,,18.63001,73.78229,,,,,,
1454,30518,Wadgaon sheri phata,,18.55898,73.91238,,,,,,
1455,40520,Pachwa mail,,18.56223,73.92336,,,,,,
34223,154644,Toll Naka,,18.73905,73.74802,,,,,,
1456,40518,Wadgaon sheri phata,,18.55882,73.91242,,,,,,
34224,150419,Bhagatwadi,,18.43307,73.65433,,,,,,
34226,153766,RD Colony,,18.57673,73.87649,,,,,,
34227,154535,Talegaon Nagarparishad,,18.72565,73.6806,,,,,,
34228,153049,NDA Gate Colony 10,,18.45446,73.76696,,,,,,
34229,153904,Sambhaji Chowk,,18.64923,73.77003,,,,,,
34230,154995,Westend,,18.51874,73.87799,,,,,,
34231,155018,Yantriki Bhavan,,18.57914,73.82689,,,,,,
34232,151217,Ganeshnagar Dange Chowk,,18.61304,73.76294,,,,,,
34233,154457,Suply Depot,,18.5656,73.84944,,,,,,
34234,154969,Waki Kh,,18.79962,73.86977,,,,,,
34235,152982,Nandegaon Phata,,18.55776,73.71577,,,,,,
34237,152328,Kunjirvasti,,18.52188,73.9834,,,,,,
34242,152154,Khandoba Mandir,,18.45341,73.87363,,,,,,
34243,150897,Daulat Garden,,18.50015,73.75315,,,,,,
34245,151389,Gokhalenagar Shala,,18.52643,73.82698,,,,,,
34246,152136,Khadi Machine Katraj Kondhwa Road,,18.45248,73.89039,,,,,,
34249,150933,Dehu Grampanchayat,,18.71746,73.76775,,,,,,
34250,150689,Chaudharibaug,,18.47161,74.07255,,,,,,
34251,150785,COD Depot,,18.69947,73.75924,,,,,,
34252,153193,Panhale Farm,,18.50002,74.04512,,,,,,
34253,153315,Pawarvasti Wadgaonghenan,,18.71444,73.93444,,,,,,
34256,154522,Talathi Office,,18.7364,73.64256,,,,,,
34257,150019,5 Wa Mile,,18.56227,73.92409,,,,,,
34258,150021,Aai mata Mandir,,18.47101,73.87531,,,,,,
34259,153451,Poultry Farm Shivneri,,18.57481,74.039,,,,,,
34261,152984,Nandgude Shala,,18.58253,73.78345,,,,,,
34262,150865,Dattamandir Marnewadi Road,,18.47881,73.65575,,,,,,
34263,152000,Karvenagar,,18.48924,73.81438,,,,,,
34267,152931,Mundhwa Shala,,18.53435,73.92795,,,,,,
34268,154980,Warhade Phata,,18.72984,73.65955,,,,,,
34269,153237,Parkhi Madhyamik Vidyalay,,18.57469,73.7068,,,,,,
34270,154585,Tata Material Gate,,18.6586,73.81228,,,,,,
34271,153182,Pandavnagar Hinjawadi,,18.58484,73.7317,,,,,,
34274,152139,Khadi Machine Shiroli,,18.82062,73.87493,,,,,,
1506,30550,Jijamata Park,,18.51882,73.85836,,,,,,
1507,40550,Jijamata Park,,18.51872,73.85827,,,,,,
34276,154237,Shivpushpak Park,,18.47838,73.82126,,,,,,
34279,153347,Philips,,18.62075,73.83669,,,,,,
34280,150566,Big India,,18.6571,73.7651,,,,,,
34281,150046,Aditya Hotel,,18.5735,73.6958,,,,,,
34282,151549,HEMRL Company,,18.52795,73.77762,,,,,,
34283,151927,Kalpataru Society Pimplegurav,,18.60126,73.81757,,,,,,
34284,150977,Dhanoragao,,18.66749,73.92535,,,,,,
34285,152696,Matalwadi Bhugaon,,18.50058,73.74107,,,,,,
34286,153892,Salunke Vihar,,18.48101,73.90586,,,,,,
34287,155036,Yerawada,,18.54518,73.88506,,,,,,
34288,151815,Jilha Parishad Shala Chande,,18.55473,73.6983,,,,,,
34290,150197,Annadhanya Godam,,18.53312,73.88964,,,,,,
1522,30556,Patil Colony/Gosavi Vasti,,18.46326,73.81521,,,,,,
34292,150027,ABC Farm,,18.48136,73.90064,,,,,,
34293,150033,Abhinav College,,18.54508,73.77879,,,,,,
34294,150619,Buddha Vihar Dapodi,,18.57451,73.83255,,,,,,
34295,153523,Provision Stores,,18.48914,73.8166,,,,,,
34296,152884,Motherson Company,,18.61604,73.70932,,,,,,
34299,150645,Century Enka Colony,,18.61596,73.84804,,,,,,
1534,40562,Vitthalwadi jakat naka,,18.49072,73.833,,,,,,
34302,153607,Rahul Park Gate Number,,18.4846,73.79484,,,,,,
34303,154047,Shagun Chowk,,18.62257,73.8015,,,,,,
1535,30563,P.L.Deshpande Garden / Navshamaruti,,18.49328,73.83542,,,,,,
1536,40563,P.L.Deshpande Garden / Navshamaruti,,18.49379,73.83597,,,,,,
34304,150920,Deccan Gymkhana,,18.5165,73.84282,,,,,,
34305,151367,Godown Gultekdi,,18.48758,73.87066,,,,,,
34306,153029,Navi Sangvi,,18.57625,73.81222,,,,,,
34307,151565,Hinjawadi Jakat Naka,,18.59083,73.74632,,,,,,
34308,152809,Military Hospital Khadki,,18.55624,73.84231,,,,,,
34309,154864,Vishramdham,,18.66214,74.0471,,,,,,
34311,154878,Vitbhatti Chande,,18.55406,73.70392,,,,,,
34312,150336,Balaji Chowk,,18.54203,73.79093,,,,,,
34313,150423,Bhagwat Mangal Karyalay,,18.62992,73.67473,,,,,,
34314,150454,Bhandara Dongar Paytha,,18.73888,73.73945,,,,,,
34315,154803,Vasantbaug Chowk,,18.48095,73.86179,,,,,,
34317,153710,Ramoshiwadi,,18.52897,73.83001,,,,,,
34318,154758,Vaishnavi Collection,,18.66299,73.80698,,,,,,
34320,152079,Kedarinagar,,18.48882,73.90001,,,,,,
34321,153425,Potewadivasti,,18.43513,73.64429,,,,,,
34322,154865,Vishramdham,,18.66391,74.04241,,,,,,
34323,153293,Patwardhanbaug,,18.49961,73.83072,,,,,,
1559,30574,Kasarwadi,,18.60412,73.8245,,,,,,
34327,150287,Avsarwadi,,18.36009,73.78838,,,,,,
1560,40574,Kasarwadi,,18.60434,73.8249,,,,,,
34328,151274,Garage,,18.48737,73.79604,,,,,,
34329,152612,Ma Na Pa Reverse side,,18.52271,73.85312,,,,,,
34332,152578,Malwadi Kirkatwadi,,18.44644,73.78888,,,,,,
34334,152644,Manjari Bk,,18.52245,73.98432,,,,,,
34335,151820,Jiveshwar Society,,18.64475,73.77252,,,,,,
34336,152076,Kawdi Rasta,,18.49141,74.00597,,,,,,
34337,153510,Prayagdham Ashram Gate,,18.50509,74.11681,,,,,,
34338,153177,Panchawati Niwas,,18.62301,74.09367,,,,,,
34339,153192,Panhale Farm,,18.49966,74.04525,,,,,,
34340,150655,Chakankarmala,,18.56619,73.78257,,,,,,
34341,151852,Jyoti English School,,18.63063,73.82374,,,,,,
1574,40581,Kirloskar Company,,18.56986,73.84175,,,,,,
34343,152105,Kendurgaon,,18.78247,74.03838,,,,,,
34344,154404,Star Garden,,18.47522,73.81615,,,,,,
34347,151735,Jahangir Hospital,,18.53144,73.87641,,,,,,
34348,154058,Shahunagar Ganesh Mandir,,18.65562,73.81047,,,,,,
34350,150443,Bhaji Market,,18.4895,73.86413,,,,,,
34351,150958,Devi Indrayani Society,,18.70396,73.78406,,,,,,
34352,153275,Pathare Bungalow,,18.55644,74.05953,,,,,,
34353,152428,L Mark,,18.62066,74.10418,,,,,,
34354,153031,Navlakha Godown,,18.46793,73.96123,,,,,,
34355,150850,Dapodi Mantri Niketan,,18.57907,73.8297,,,,,,
34356,151627,IIMS Institute,,18.6182,73.70412,,,,,,
34357,154912,Vitthal Mandir Shreeman Society,,18.49014,73.82486,,,,,,
34359,154916,Vitthalwadi Dehu,,18.71118,73.77538,,,,,,
34360,154338,Snehalay Apang Shala,,18.56734,73.98778,,,,,,
34361,152911,Mula House,,18.57301,73.86704,,,,,,
34362,154016,Satyapuram,,18.49164,73.94896,,,,,,
34363,151422,Gopal Patti,,18.51216,73.96706,,,,,,
34365,152948,Naigaon,,18.51047,74.09906,,,,,,
26177,137971,Vitthal Mandir Mhasolkar,,18.63315,73.81236,,,,,,
34371,151310,Gavtevasti,,18.73734,73.85754,,,,,,
34372,150597,Boratevasti Nasik Road,,18.66519,73.8487,,,,,,
34373,154378,Spicer College,,18.56295,73.81813,,,,,,
34374,152943,Nageshwar Vidyalay,,18.68044,73.84869,,,,,,
34375,153921,Sandhyanagar,,18.54571,73.8044,,,,,,
34376,154190,Shivaji Chowk Talegaon Dhabhade Road,,18.73278,73.66738,,,,,,
34378,151167,Gaikwadwadi,,18.42685,73.66687,,,,,,
34379,151511,Hadapsar Gadital Saswad Road,,18.50096,73.93906,,,,,,
34380,151938,Kalubai Mandir Warve,,18.29397,73.87194,,,,,,
34381,153700,Ramnagar Pimplegurav,,18.58909,73.81285,,,,,,
34382,151729,Jagtap Dairy,,18.59346,73.78451,,,,,,
34384,152496,Mahabaleshwar Mangal Karyalay,,18.58134,73.72372,,,,,,
34386,152295,Kshatrunjay Mandir,,18.45058,73.87961,,,,,,
34387,152374,Lakshminagar Handewadi Road,,18.45656,73.93582,,,,,,
34388,154511,Tadi Gutta,,18.53246,73.91759,,,,,,
34391,153908,Sambhajinagar Dhankawadi,,18.46815,73.85579,,,,,,
34392,151034,Donajegaon,,18.40923,73.76775,,,,,,
34393,150141,Ambegaon,,18.45353,73.83983,,,,,,
34394,150151,Ambigaon,,18.75589,73.67322,,,,,,
34395,150405,Bavdhan Khind/Chandani Chowk,,18.50761,73.7836,,,,,,
34398,151756,Jakat Naka Mohammadwadi,,18.49794,73.93366,,,,,,
26207,30614,Ordinance Club,,18.57163,73.86298,,,,,,
34400,153636,Rajaram Pul,,18.48889,73.82658,,,,,,
26208,40614,Ordinance Club,,18.57169,73.86281,,,,,,
1633,30610,Kasturba Hopsital,,18.57301,73.88166,,,,,,
1634,40610,Kasturba Hopsital,,18.57319,73.88204,,,,,,
34403,152498,Mahabali Chowk,,18.6596,73.80756,,,,,,
26212,30990,Sasoon Hospital,,18.52507,73.87148,,,,,,
34404,153556,Pune Vidhyapeeth Gate,,18.54145,73.83016,,,,,,
26213,30978,Kesnand Phata,,18.58131,73.98719,,,,,,
34405,150796,Colony Number 10,,18.49571,73.81029,,,,,,
26214,40978,Kesnand Phata,,18.58088,73.98768,,,,,,
1638,40612,Police Line,,18.5691,73.87037,,,,,,
34409,153034,Navlakh Umbre Jalshuddhikaran Kendra,,18.79444,73.69495,,,,,,
34410,153626,Railway Quarters,,18.64621,73.77041,,,,,,
26219,30991,Dattanagar Alandi Road,,18.62201,73.87411,,,,,,
34412,153645,Rajasthan Hotel,,18.73454,73.96769,,,,,,
34413,153813,Sadesatranali,,18.51473,73.9485,,,,,,
26222,40935,Gokhale Hall,,18.51404,73.84928,,,,,,
34416,154898,VIT College,,18.45946,73.88351,,,,,,
26224,30992,Sandvik company,,18.59342,73.82982,,,,,,
34417,154004,Satavnagar,,18.47662,73.93135,,,,,,
26225,30946,Shanti Nagar,,18.56855,73.87588,,,,,,
26226,40400,Warje Malwadi,,18.47573,73.7958,,,,,,
34418,152749,MES Pumping Station,,18.53656,73.79567,,,,,,
1651,30619,Sainik Wadi,,18.5537,73.91669,,,,,,
34421,154349,Someshwarwadi,,18.54679,73.79931,,,,,,
34422,152742,Mental Hospital,,18.56458,73.88224,,,,,,
34427,153125,Officers Mess,,18.58983,73.91453,,,,,,
34430,154320,Sinhagad,,18.38092,73.76822,,,,,,
34431,151654,Indori Bypass Phata,,18.73775,73.72753,,,,,,
34432,151659,Indrayani Darshan,,18.68888,73.71817,,,,,,
34433,154162,Shipra Society,,18.49199,73.81807,,,,,,
34435,150545,Bhugaon,,18.50117,73.75033,,,,,,
34436,151210,Ganeshnagar Alandi Road,,18.59735,73.8732,,,,,,
1668,40626,Bhosri Phata (Magzine),,18.63351,73.87488,,,,,,
1669,30627,Dighi Odha,,18.62711,73.86492,,,,,,
34437,152786,MIDC Phata,,18.75424,73.80569,,,,,,
1670,40627,Dighi Odha,,18.62743,73.8652,,,,,,
34438,151707,Jadhavnagar,,18.46747,73.82813,,,,,,
34439,151370,Godown Gultekdi,,18.48933,73.86987,,,,,,
1672,40628,Shastri Chowk,,18.62527,73.8611,,,,,,
34440,151652,Indoorance System Chakan Mhalunge,,18.74244,73.80665,,,,,,
34441,153743,Rasrang Sweet Corner,,18.63313,73.81591,,,,,,
34442,153171,Paisa Fund,,18.73135,73.66126,,,,,,
1675,30630,Gavli mala,,18.63697,73.82591,,,,,,
34443,154486,Suvarna Fabricators,,18.74747,73.80641,,,,,,
34444,150820,Dagade Patil Farm,,18.53082,73.56812,,,,,,
34445,153083,Newalevasti,,18.67599,73.8072,,,,,,
1679,40631,Telco hostel,,18.642,73.82164,,,,,,
26257,31011,Madiwale Colony,,18.50581,73.85294,,,,,,
34449,152031,Kaspatevasti,,18.59274,73.77349,,,,,,
34450,155062,ZF Steering Company,,18.65967,74.04986,,,,,,
34451,150595,Boratevasti Chikhali Road,,18.67969,73.83677,,,,,,
34454,150925,Deep Bungalow,,18.52994,73.83548,,,,,,
34455,151499,HA Corner,,18.62866,73.81506,,,,,,
34457,150942,Dehuroad Police Lane,,18.68632,73.72209,,,,,,
34459,153066,Nehrunagar Corner,,18.62968,73.81939,,,,,,
1692,40637,Yamuna nagar,,18.66409,73.78709,,,,,,
34460,150500,Bhatnagar,,18.62543,73.799,,,,,,
34461,153781,Rohkal Phata,,18.80277,73.87187,,,,,,
34462,154489,Suvarnpark,,18.59135,73.81957,,,,,,
1695,30639,Tilak Chowk,,18.6596,73.7781,,,,,,
34463,153595,Raghunandan Mangal Karyalay,,18.62126,73.76057,,,,,,
34464,154958,Wakad Bridge,,18.59127,73.75753,,,,,,
1696,40639,Tilak Chowk,,18.65979,73.77805,,,,,,
34465,152149,Khadki Station,,18.56173,73.84047,,,,,,
34466,153115,Nisarga Society,,18.51549,73.76893,,,,,,
34467,150374,Bandal Farm,,18.4982,73.71771,,,,,,
34468,153906,Sambhajinagar,,18.66058,73.79661,,,,,,
34469,154484,Sutarwadi Paud Road,,18.51547,73.65607,,,,,,
34471,151667,Indrayaninagar Corner,,18.62916,73.83335,,,,,,
34472,150552,Bhumkar complex,,18.44651,73.82652,,,,,,
34474,151342,Ghorpadi Post,,18.52518,73.89491,,,,,,
34476,152656,Marado Company,,18.53924,73.80977,,,,,,
1708,30645,Giridharbhavan,,18.49295,73.86883,,,,,,
34478,152336,Kuran Farm,,18.49351,73.99122,,,,,,
34479,154962,Wakad Phata,,18.58766,73.7893,,,,,,
1714,30648,Sonavane Hospital,,18.50564,73.86847,,,,,,
34482,154176,Shitalbaug,,18.61581,73.84531,,,,,,
1715,40648,Sonavane Hospital,,18.50578,73.86857,,,,,,
34484,154367,Sonya Maruti Chowk,,18.5161,73.85937,,,,,,
34485,152141,Khadki Bazar,,18.56636,73.84846,,,,,,
34487,153514,Prayag Dham Phata,,18.48775,74.12017,,,,,,
1720,30651,Nana Path / Modern Bakery,,18.51493,73.86861,,,,,,
34488,151004,Dhumal Tali,,18.42816,73.74136,,,,,,
34489,151870,Kadamvasti Perne,,18.6259,74.06501,,,,,,
34490,153058,Neeta Park Pimple Nilakh,,18.57917,73.78598,,,,,,
34492,150418,Bhadalevasti SaswadRoad,,18.45474,73.96759,,,,,,
34493,150051,Agam Mandir,,18.44674,73.85387,,,,,,
34494,150059,Agnishamak Kendra NDA,,18.46262,73.76057,,,,,,
1727,40654,ST Depo,,18.50096,73.86792,,,,,,
34495,152461,Lucky Wajankata,,18.46117,73.94991,,,,,,
34497,154426,ST Stand Nasrapur,,18.25505,73.88369,,,,,,
34499,152881,Moshi Jakat Naka,,18.66215,73.84868,,,,,,
34500,154416,St Meera College,,18.53614,73.88551,,,,,,
34501,155009,Yadavvasti Naigaon Chaufula,,18.51507,74.08559,,,,,,
34502,153140,Ordinance Factory,,18.67872,73.74186,,,,,,
34503,152027,Kashiwadi,,18.50732,73.87114,,,,,,
34504,153289,Patrakarnagar,,18.52418,73.82782,,,,,,
34505,153545,Punawale Phata,,18.63911,73.75031,,,,,,
1738,30660,sadalbaba darga,,18.54424,73.87793,,,,,,
34506,152549,Maheshnagar,,18.62587,73.81918,,,,,,
34507,150357,Balewadi Phata,,18.56364,73.78277,,,,,,
34508,150602,Bormal,,18.32799,73.85234,,,,,,
34509,150931,Dehugaon Phata,,18.67872,73.7419,,,,,,
34510,151980,Karandigaon Kaman,,18.72658,74.06088,,,,,,
34512,152906,Mukbadhir Shala,,18.6603,73.76449,,,,,,
34514,153358,Pimplegurav,,18.59291,73.81893,,,,,,
34515,152854,Moi Phata,,18.68252,73.81938,,,,,,
34516,154222,Shivapurwada,,18.34085,73.83924,,,,,,
1749,40665,Kharadi Gaon,,18.5476,73.94612,,,,,,
34517,153880,Sai Sayajinagar,,18.49001,73.79146,,,,,,
34519,154869,Vishrantwadi Airport Road,,18.57277,73.87749,,,,,,
34520,152903,Mukainagar,,18.44417,73.78303,,,,,,
34524,150721,Chinchwade Farm,,18.63314,73.7678,,,,,,
34525,154064,Shaninagar,,18.44621,73.84897,,,,,,
34526,150591,Bopodi,,18.57254,73.83692,,,,,,
34528,154624,Theur Phata,,18.48866,74.05165,,,,,,
34529,152705,Materewadi,,18.56839,73.66181,,,,,,
34530,151071,DY Patil College Akurdi,,18.64639,73.75878,,,,,,
34532,153772,Rihegaon,,18.57665,73.6415,,,,,,
34533,154095,Shasakiya Vishramgruha Paudgaon,,18.52418,73.60775,,,,,,
34535,151769,Jambhulkarnagar,,18.49476,73.90002,,,,,,
34537,152774,Mhasoba Mandir,,18.56899,73.86731,,,,,,
34542,150625,Bungalow Number 105,,18.53567,73.89206,,,,,,
34548,150299,Badadevasti,,18.48817,74.08346,,,,,,
34550,150535,Bhosalevasti Nagar Road,,18.71212,74.04592,,,,,,
34551,152818,MIT College,,18.51246,73.8177,,,,,,
34552,153807,Sachchai Mata Mandir,,18.44342,73.85299,,,,,,
34557,154185,Shitolevasti Susgaon,,18.55373,73.74956,,,,,,
34559,151326,Gharkul Vasahat Warje,,18.49026,73.78786,,,,,,
34560,152217,Kondhanpur,,18.34961,73.7952,,,,,,
34561,154537,Talegaon Station,,18.73266,73.67332,,,,,,
34562,152358,Lake Town Gate Number,,18.45736,73.86488,,,,,,
34563,150593,Bopodigaon,,18.57135,73.83845,,,,,,
34564,152540,Mahatma Gandhi Stand,,18.50505,73.88245,,,,,,
34565,153891,Sakoremala,,18.64838,74.0202,,,,,,
34566,154528,Talegaon General Hospital,,18.73357,73.67827,,,,,,
34567,153309,Pawar Quarters,,18.51807,73.83695,,,,,,
34568,153800,Runwal Project,,18.48731,73.79542,,,,,,
34569,151807,Jijamata Hospital,,18.61956,73.80105,,,,,,
1802,30689,Yerwada,,18.54521,73.88549,,,,,,
34570,153601,Rahatani Phata,,18.60635,73.78,,,,,,
34571,150753,Chintamani Society,,18.48606,73.8457,,,,,,
1803,40689,Yerwada,,18.54501,73.88564,,,,,,
34572,151146,Futira Complex,,18.49891,73.78948,,,,,,
1804,30514,Gunjan corner,,18.54567,73.88791,,,,,,
1805,40514,Gunjan Corner,,18.54554,73.88814,,,,,,
18189,101339,Shanipar,,18.51287,73.85333,,,,,,
34573,152028,Kashiwadi,,18.51002,73.87009,,,,,,
34574,154754,Vahtuknagari,,18.66199,73.76702,,,,,,
34575,151917,Kalikamata Mandir,,18.62859,73.78546,,,,,,
34576,152716,Mayuresh Automobiles,,18.53645,73.98997,,,,,,
34577,153338,Perugate Police Chowky,,18.51124,73.84875,,,,,,
34578,151409,Golewadi,,18.40279,73.76876,,,,,,
1811,30692,Jai Bhavani Nagar,,18.50945,73.81181,,,,,,
34579,154945,Waghere College,,18.35509,74.02865,,,,,,
1812,40692,Jai Bhavani Nagar,,18.50859,73.81078,,,,,,
34580,151577,Hirabaug,,18.50435,73.8548,,,,,,
1815,30694,Raste Wada / Apollo Talkies,,18.52076,73.86478,,,,,,
34583,151406,Gole Phata,,18.41146,73.76556,,,,,,
1816,40694,Raste Wada / Apollo Talkies,,18.51959,73.86477,,,,,,
34584,153504,Pravin Masala Company,,18.31527,73.86285,,,,,,
34585,154462,Suryakiran Khat Karkhana,,18.45528,73.89071,,,,,,
34588,153452,Poultry Farm Sorthapwadi,,18.48812,74.08901,,,,,,
34590,153795,RTO Chikhali,,18.65811,73.81241,,,,,,
34591,154608,Thakur Vasti,,18.66601,73.93486,,,,,,
34592,154897,Vitbhatti Wakad,,18.61297,73.76583,,,,,,
34593,153945,Sangvi College,,18.64581,73.80307,,,,,,
1825,30699,Ganjay Society,,18.50016,73.80474,,,,,,
34594,151551,Hero Chassis,,18.79186,73.69468,,,,,,
34595,152527,Maharshi Karve Shikshan Sanstha,,18.48716,73.81513,,,,,,
34598,153172,Paisa Fund,,18.73147,73.66131,,,,,,
34599,152039,Kasture Chowk,,18.51117,73.86203,,,,,,
34600,153279,Patidar Bhavan,,18.65468,73.7637,,,,,,
34601,152222,Kondhwa Bk Corner,,18.45298,73.89095,,,,,,
34604,152988,Nanekarpark,,18.6062,73.80141,,,,,,
34605,153817,Sadhana Vidyalay,,18.50573,73.93855,,,,,,
34606,152907,Mukbadhir Shala,,18.66045,73.76444,,,,,,
34608,154501,Swargate,,18.49961,73.85818,,,,,,
34611,152971,Nanavli Phata,,18.77112,73.68874,,,,,,
34612,151673,Indrayani Vihar,,18.59526,73.93415,,,,,,
34613,152140,Khadki Bazar,,18.56631,73.84847,,,,,,
34614,151601,Hotel Vitthal Kamat,,18.53114,73.56075,,,,,,
34615,150144,Ambegaon Pathar Corner,,18.45981,73.8459,,,,,,
34616,154177,Shital Petrol Pump,,18.46903,73.88892,,,,,,
34617,154592,Telco Colony,,18.44869,73.84942,,,,,,
34619,152216,Kondhanpur,,18.34961,73.79519,,,,,,
34620,152552,Maheshwari Mangal Karyalay,,18.46115,73.87698,,,,,,
34621,153632,Rajaram Gas,,18.45463,73.85374,,,,,,
34622,153903,Sambaji Pul Police Chowky,,18.5135,73.84447,,,,,,
34624,150455,Bhandara Dongar Paytha,,18.73902,73.73919,,,,,,
34625,150546,Bhukum,,18.49869,73.72036,,,,,,
34626,152877,Moshigaon,,18.67726,73.84958,,,,,,
34629,151444,GPO,,18.52343,73.876,,,,,,
34630,153357,Pimpavali Phata,,18.59453,73.60846,,,,,,
34631,153132,Omkar Comoany,,18.66683,73.92839,,,,,,
1864,40716,Ganesh Nagar Alandi Road,,18.59768,73.87335,,,,,,
34632,153937,Sangrun,,18.40018,73.67856,,,,,,
34633,150238,Arsenal Factory Gate,,18.57275,73.85963,,,,,,
34635,150265,Atlas Company,,18.61886,73.85007,,,,,,
34637,150086,Akole Bus Stop,,18.52904,73.57206,,,,,,
34638,150339,Balaji Mandir,,18.54267,73.79015,,,,,,
34639,150766,Chudaman Talim,,18.50832,73.87499,,,,,,
1871,40719,Paraj Company,,18.54933,73.92935,,,,,,
34640,152302,Kudjegaon,,18.4261,73.73856,,,,,,
34641,152945,Nageshwar Vidyalay Phata,,18.67935,73.84865,,,,,,
34642,152069,Kaun Road,,18.52324,73.88677,,,,,,
34643,152928,Mundhwa Phata,,18.53291,73.93365,,,,,,
1876,40720,Shastri Nagar,,18.55174,73.89596,,,,,,
34644,154468,Suskhind Phata,,18.54754,73.77398,,,,,,
34645,154084,Shantinagar,,18.5671,73.87919,,,,,,
34646,150952,Deshpande Farm,,18.52781,73.57468,,,,,,
34647,152577,Malwadi Kirkatwadi,,18.44244,73.79014,,,,,,
34648,153060,Nehrunagar,,18.62971,73.82001,,,,,,
34650,153113,Nirma Company,,18.64625,73.88052,,,,,,
34651,152467,Lupin Company Phata,,18.556,73.73742,,,,,,
34654,152821,Mitranagar,,18.5197,73.91136,,,,,,
34655,153085,Nhavi Sandas,,18.60558,74.15564,,,,,,
34657,154465,Suskhind Phata,,18.54729,73.77274,,,,,,
1889,30727,Anand Park,,18.55283,73.92517,,,,,,
34658,151500,Hadapsar Bhaji Market,,18.50105,73.9335,,,,,,
1890,40727,Anand Park,,18.55284,73.92517,,,,,,
34659,152880,Moshi Jakat Naka,,18.66189,73.84847,,,,,,
34660,153003,Nasrapur,,18.24875,73.87879,,,,,,
34661,153606,Rahatwadegaon,,18.34132,73.79428,,,,,,
34663,154488,Suvarnpark,,18.59109,73.8196,,,,,,
34664,152273,Krushna Mandir Corner,,18.61904,73.79836,,,,,,
34665,152020,Kasarsai Karkhana Phata,,18.62902,73.67577,,,,,,
34666,152155,Khandoba Mandir,,18.45389,73.87353,,,,,,
34668,153080,Netajinagar,,18.48837,73.89321,,,,,,
34671,151384,Gokhale Hall,,18.51414,73.84971,,,,,,
34672,154882,Vitbhatti Nere,,18.61953,73.69866,,,,,,
34673,151464,Gujarwadi Phata,,18.4384,73.86056,,,,,,
34674,151184,Gandharvanagari,,18.65351,73.84918,,,,,,
34675,151241,Ganesh Peth,,18.51609,73.86218,,,,,,
34676,152384,Lal Ghar,,18.48092,73.661,,,,,,
34677,154106,Shatrunjay Mandir,,18.45069,73.87956,,,,,,
34678,150267,Atulnagar,,18.48652,73.79652,,,,,,
34679,150384,Bangarvasti,,18.56834,74.03467,,,,,,
34680,150120,Alpana Talkies,,18.51616,73.86348,,,,,,
34682,151584,Holi Angel Shala,,18.54529,73.98949,,,,,,
34683,153733,Rangicha Odha,,18.51387,73.97154,,,,,,
1916,30739,Talegaon Phata ST Stand,,18.69201,74.13507,,,,,,
34687,154372,Sortapwadi,,18.48807,74.09957,,,,,,
34688,152156,Khandoba Mandir Corner,,18.45527,73.87345,,,,,,
1922,30742,ST Stand Grampanchayat Talegaon,,18.66779,74.14933,,,,,,
34690,155012,Yadavvasti Prayagdham,,18.49623,74.11941,,,,,,
34691,152692,Master Bakery,,18.63305,73.81678,,,,,,
34692,150798,Commissioner Bungalow,,18.64754,73.80827,,,,,,
34693,151202,Ganeshmala,,18.49674,73.83832,,,,,,
34694,151916,Kalewadi Saswad Road,,18.3957,74.01355,,,,,,
34695,152763,Mhalunge Phata Balewadi,,18.56876,73.76667,,,,,,
34696,152182,Khothrud Stand,,18.49976,73.81366,,,,,,
34697,150387,Bankarvasti,,18.67124,73.84842,,,,,,
34698,152812,Military Hospital Vanawadi,,18.50174,73.89102,,,,,,
34700,152980,Nanded Phata,,18.45485,73.79689,,,,,,
34701,152614,Ma Na Pa Reverse side,,18.52405,73.85398,,,,,,
34702,150697,Chaudharivasti Solapur Road,,18.48816,74.09256,,,,,,
34703,152799,Mile Dagad Kramank 22 Pirangutghat,,18.50679,73.70299,,,,,,
34705,153654,Rajesh Society Corner,,18.44844,73.86847,,,,,,
34706,152580,Malwadi Kunjirwadi,,18.48276,74.07161,,,,,,
18323,104815,Vitbhatti Wakad,,18.61285,73.76591,,,,,,
34708,150192,Ankur Bungalow,,18.501,73.80493,,,,,,
34709,150096,Akurdi Police Chowky,,18.65099,73.76722,,,,,,
34710,150031,Abhiman Shree Society,,18.54005,73.81807,,,,,,
34711,150099,Alandi,,18.67454,73.89735,,,,,,
34713,154957,Wakad Bridge,,18.59096,73.75752,,,,,,
1946,30754,ST Regional Office,,18.50053,73.86641,,,,,,
34715,150285,Aviraj Lodge,,18.50584,73.81583,,,,,,
34716,152757,Mhalunge,,18.57443,73.75534,,,,,,
34717,152517,Mahalaxminagar Corner,,18.46027,73.86506,,,,,,
34718,151134,Fuel Depot,,18.4908,74.01021,,,,,,
34719,152225,Kondhwagate,,18.45583,73.76828,,,,,,
34720,150944,Dehu road Station,,18.67851,73.74337,,,,,,
34722,151307,Gavli Matha,,18.63707,73.8258,,,,,,
34726,154538,Talegaon Station,,18.73275,73.67318,,,,,,
10151,137193,Avinash Mangal Karyalay,,18.61601,73.78668,,,,,,
34727,153420,Popularnagar,,18.48454,73.79949,,,,,,
1960,30761,Alfa Laval Company,,18.59538,73.82888,,,,,,
1961,40761,Alfa Laval Company,,18.59868,73.82799,,,,,,
34729,150509,Bhegdewadi,,18.54758,73.65829,,,,,,
34730,150666,Chakradhar Shala,,18.44751,73.84911,,,,,,
34731,152046,Kate Patil Chowk,,18.59928,73.80746,,,,,,
34732,154651,Traffic Police Chowky,,18.5042,73.92153,,,,,,
34733,154030,Sawtamali Mandir,,18.59175,73.75453,,,,,,
34735,154211,Shivaji Maratha Highschool,,18.5068,73.85808,,,,,,
1968,30765,Gajanan Mandir,,18.6319,73.87276,,,,,,
34737,154875,Vishwakarma,,18.54335,73.78689,,,,,,
1969,40765,Gajanan Mandir,,18.63214,73.87291,,,,,,
34738,151467,Gujrat Colony,,18.50509,73.81187,,,,,,
34739,153634,Rajaram Pul,,18.48745,73.82878,,,,,,
34741,154242,Shivshankar Society,,18.46037,73.85065,,,,,,
34742,151717,Jadhavwadi Phata Chikhali,,18.67966,73.81948,,,,,,
34743,150775,CISV,,18.67827,73.7455,,,,,,
34744,151474,Gulnur Farm,,18.34775,73.82793,,,,,,
34745,152713,Mayur Colony,,18.50403,73.8181,,,,,,
34746,154269,Shree Control,,18.44362,73.82185,,,,,,
34747,153044,NCL Gate,,18.53973,73.81282,,,,,,
34750,154890,Vitbhatti Rehe,,18.57747,73.63232,,,,,,
34752,151942,Kalwad,,18.58534,73.90514,,,,,,
1984,30773,Chandannagar / Sainathnagar,,18.54012,73.93189,,,,,,
34753,151013,Digambar Marble,,18.5829,73.76052,,,,,,
1985,40773,Chandannagar / Sainathnagar,,18.54009,73.93181,,,,,,
34754,150404,Bavdhan Khind/Chandani Chowk,,18.50704,73.78404,,,,,,
1986,30774,Meera Society,,18.50188,73.87049,,,,,,
1987,40774,Meera Society,,18.50163,73.87061,,,,,,
34755,150139,Ambedkar Vasahat,,18.666,73.77551,,,,,,
34757,150657,Chakan Market Yard,,18.76639,73.86359,,,,,,
34758,153462,Power House Ghotawade,,18.5278,73.6695,,,,,,
34759,150987,Dhawdevasti,,18.63,73.85091,,,,,,
1991,40776,Punyanagri,,18.54743,73.92412,,,,,,
34760,154446,Suncity,,18.47478,73.81367,,,,,,
34761,153621,Railway Crossing Sasanenagar,,18.4898,73.93181,,,,,,
34762,150408,Bavdhan Phata,,18.51963,73.77884,,,,,,
34763,154025,Sawarkar Bhavan,,18.52233,73.85,,,,,,
34765,152198,Kiwalegaon,,18.65766,73.72223,,,,,,
34766,154293,Shubham Society Warje,,18.48852,73.79433,,,,,,
34767,152326,Kundan Hotel,,18.62575,73.80542,,,,,,
2000,40780,Kharadi Gaon School,,18.54769,73.94612,,,,,,
34768,151988,Kardevasti,,18.47465,74.07361,,,,,,
34770,152954,Nakhatevasti,,18.60493,73.78665,,,,,,
34771,153805,Sachapir Street,,18.5163,73.8715,,,,,,
34772,152107,Kesanandgaon,,18.57301,74.0246,,,,,,
34773,150696,Chaudharivasti Solapur Road,,18.48803,74.09252,,,,,,
34774,150985,Dharmaraj Chowk,,18.64951,73.76164,,,,,,
34775,152205,Kohima line,,18.67283,73.76469,,,,,,
34777,152800,Mile Dagad Kramank 22 Pirangutghat,,18.50683,73.703,,,,,,
34778,153050,NDA Gol Market,,18.46631,73.76548,,,,,,
34779,154899,VIT College,,18.45992,73.88345,,,,,,
34781,151890,Kalamkarvasti,,18.56424,73.77735,,,,,,
34783,153454,Poultry Farm Trimurti,,18.40875,73.67796,,,,,,
34784,152693,Masulkar Colony,,18.63363,73.80682,,,,,,
34786,153030,Navi Sangvi,,18.57628,73.81223,,,,,,
34787,150255,Ashoknagar Rangehills,,18.54187,73.83748,,,,,,
34788,150567,Big India,,18.65713,73.76521,,,,,,
34789,153234,Pari Company,,18.44475,73.82167,,,,,,
34790,154073,Shaniwarwada Stand,,18.52198,73.85579,,,,,,
2022,30793,Sutar Clinic,,18.50386,73.80806,,,,,,
34791,150476,Bharat English School,,18.57369,73.7751,,,,,,
2023,40793,Sutar Clinic,,18.5038,73.80798,,,,,,
34793,151308,Gavli Matha,,18.63707,73.82601,,,,,,
34794,154851,Vimannagar Corner,,18.5612,73.91949,,,,,,
34798,152940,Nadar City,,18.54671,73.62982,,,,,,
2031,40728,Godown (Talera),,18.5761,73.96423,,,,,,
34799,151381,Gogalwadi Phata,,18.38497,73.85566,,,,,,
2033,40794,Soyrik Mangal Karyalay,,18.57693,73.96836,,,,,,
34801,150960,Devi Link,,18.62799,73.79648,,,,,,
34804,150246,Ashirwad Bungalow,,18.62339,74.09203,,,,,,
34805,150080,Ajinkyatara,,18.44546,73.82386,,,,,,
34806,153102,Niljyoti Society,,18.53287,73.82132,,,,,,
34807,154313,Sindh Colony Baner Road,,18.54881,73.81302,,,,,,
34810,154662,Triveninagar,,18.66802,73.78588,,,,,,
34812,151943,Kalyangaon,,18.34652,73.75184,,,,,,
34814,154704,Uttamnagar,,18.4604,73.77224,,,,,,
34815,153370,Pimplesaudagar Chowk,,18.60124,73.80306,,,,,,
34816,151585,Holi Angel Shala,,18.5453,73.98952,,,,,,
34817,152346,Kutalevasti,,18.56256,74.04648,,,,,,
34818,154549,Tamhane Chowk,,18.56171,73.79231,,,,,,
34819,151710,Jadhavwadi Chikhali,,18.67027,73.82448,,,,,,
34822,150869,Dattamandir Pashan Road,,18.54158,73.79195,,,,,,
2055,30805,Laxminarayan Talkies,,18.4962,73.858,,,,,,
2056,40805,Laxminarayan theatre,,18.49653,73.85832,,,,,,
34824,153518,Pride Ashiyana Society,,18.60987,73.91131,,,,,,
34826,154194,Shivaji Maharaj Putla,,18.52631,73.85287,,,,,,
34828,153928,Sanevasti,,18.67235,73.80094,,,,,,
34829,153265,Pashan Naka Bus Stand,,18.53798,73.79755,,,,,,
34830,151435,Gosavivasti Theur Road,,18.51315,74.04497,,,,,,
34831,151593,Homegaurd,,18.55436,73.87456,,,,,,
34833,151963,Kamgarnagar,,18.62894,73.81246,,,,,,
34834,154271,Shreedhar Colony,,18.48721,73.8216,,,,,,
34835,153665,Rajiv Gandhinagar,,18.46022,73.86922,,,,,,
34836,152177,Khiridvasti,,18.42738,73.76001,,,,,,
34838,150195,Ankush Chowk,,18.67075,73.78113,,,,,,
34840,150353,Balewadi Depot,,18.57489,73.76566,,,,,,
34841,154807,Vasantdada Sugar Institute,,18.523,73.9766,,,,,,
34842,154441,Sukhsagarnagar,,18.45693,73.8694,,,,,,
2074,30814,Milk Dairy / Sarpodyan,,18.45392,73.85833,,,,,,
2075,40814,Milk Dairy / Sarpodyan,,18.45394,73.85867,,,,,,
34844,154428,ST Stand Paud,,18.52378,73.61878,,,,,,
2076,30815,Morebaug,,18.44984,73.85801,,,,,,
34845,150440,Bhaji Mandai Hadapsar,,18.5008,73.93455,,,,,,
2077,40815,Morebaug,,18.44986,73.85834,,,,,,
34847,151558,Hingane,,18.48096,73.82559,,,,,,
34851,152004,Karvenagar,,18.48942,73.81453,,,,,,
34852,154048,Shagun Chowk,,18.62261,73.80152,,,,,,
34853,154410,Station Family Camp,,18.52322,73.88683,,,,,,
34854,154804,Vasantdada Putala Sangvi,,18.57567,73.82599,,,,,,
34855,154056,Shahunagar Ganesh Mandir,,18.65558,73.81149,,,,,,
34856,153506,Pravin Mehendi,,18.45085,73.89952,,,,,,
34858,152714,Mayur Colony,,18.50438,73.81806,,,,,,
34859,153280,Patidar Bhavan,,18.65477,73.76382,,,,,,
34860,153646,Rajasthan Hotel,,18.73457,73.9677,,,,,,
34861,153886,Sakalnagar,,18.5466,73.81919,,,,,,
34862,153578,Quarter Gate,,18.51616,73.87077,,,,,,
34863,153028,Navi Sangvi,,18.57614,73.81225,,,,,,
2095,40524,Janakbaba Darga,,18.56554,73.94406,,,,,,
2096,40408,Gandhi Bhavan Phata,,18.49461,73.81338,,,,,,
34864,152035,Kasturba Gandhi Shala,,18.53971,73.88929,,,,,,
34865,151166,Gaikwadvasti Shivapurgaon,,18.33336,73.82601,,,,,,
34866,153012,Natraj Stand,,18.50077,73.85727,,,,,,
34867,154015,Satyapuram,,18.49154,73.94887,,,,,,
2100,30824,Bhaji Market,,18.49758,73.96152,,,,,,
34869,155061,ZF Steering Company,,18.65933,74.05017,,,,,,
34870,152762,Mhalungegaon,,18.57454,73.75532,,,,,,
34871,151604,Housing Board Corner,,18.55825,73.8942,,,,,,
2103,40825,Viman nagar corner,,18.5603,73.91672,,,,,,
34872,151787,Jayanand Khira,,18.63005,73.83009,,,,,,
34873,152620,Mandai,,18.51388,73.85721,,,,,,
34874,153611,Raikarmala,,18.43866,73.80914,,,,,,
34876,150252,Ashok Leyland Godown,,18.31041,73.86715,,,,,,
34877,150760,Choundhe Lowns,,18.58645,73.78102,,,,,,
34878,151777,Janwadi,,18.5302,73.82341,,,,,,
34879,151826,Joona Hinjawadi Jakat Naka,,18.59069,73.7469,,,,,,
34881,151177,Galinde Path,,18.48445,73.81045,,,,,,
34882,151534,Hariprasad Bungalow,,18.45249,73.86398,,,,,,
34883,154835,Vijaynagar,,18.61851,73.79193,,,,,,
34885,153055,Neeta Park,,18.54563,73.88856,,,,,,
34886,153435,Poultry Farm Deccan,,18.7357,73.64502,,,,,,
34887,154274,Shree Industries,,18.45113,73.82942,,,,,,
34888,154479,Sutarvasti,,18.43016,73.66209,,,,,,
34889,154140,Shinde Farm,,18.50847,73.78988,,,,,,
34891,154933,Wadebolhai Mandir,,18.58442,74.07041,,,,,,
34893,153524,Provision Stores,,18.48921,73.81666,,,,,,
34894,152767,Mhalunge Stadium Gate,,18.57133,73.76052,,,,,,
34895,150439,Bhairoba Pumping Station,,18.53922,73.9016,,,,,,
34896,151242,Ganesh Talav,,18.6546,73.76253,,,,,,
34897,152179,Kholevasti,,18.45906,73.9122,,,,,,
34898,152832,Modern College Moshi,,18.67942,73.84122,,,,,,
2132,40686,Gangapuram Mhada,,18.56911,73.91101,,,,,,
34901,154779,Vanaj Corner,,18.50747,73.80729,,,,,,
34902,150905,Deccan College,,18.54857,73.87123,,,,,,
34903,153391,Pirangut,,18.51022,73.68923,,,,,,
34906,150147,Ambegaon Phata Lavasa Road,,18.48201,73.66291,,,,,,
34907,150159,Ammunition Factory,,18.57319,73.85798,,,,,,
34908,150743,Chintamani Dnyanpith,,18.45601,73.84002,,,,,,
34909,152981,Nandegaon Phata,,18.55774,73.71576,,,,,,
34910,153583,Radha Hotel,,18.56988,73.76414,,,,,,
34911,154308,Simla Office,,18.5288,73.84989,,,,,,
34912,154596,Telco Godown,,18.62725,73.87455,,,,,,
2145,30529,Jadhav Vasti,,18.59467,74.0005,,,,,,
34913,152661,Markalgaon,,18.67329,73.97542,,,,,,
34914,154499,Swargate,,18.49917,73.85851,,,,,,
2146,40529,Jadhavvasti,,18.59399,74.00082,,,,,,
34915,152073,Kawdewadi,,18.53875,73.89282,,,,,,
34916,152803,Mile Dagad Kramank 8 Bavdhan Ghat,,18.50477,73.76492,,,,,,
34918,154922,Vitthalwadi Phata,,18.52081,73.625,,,,,,
2151,30730,12 Mile,,18.60922,74.01536,,,,,,
34919,152192,Kirloskar Company,,18.36131,74.02623,,,,,,
34920,150927,Defence Colony,,18.48231,73.87773,,,,,,
2152,40730,12 Mile,,18.60925,74.01556,,,,,,
34921,151665,Indrayaninagar,,18.63529,73.84076,,,,,,
34922,152011,Karve Putala,,18.50223,73.81561,,,,,,
34923,152116,Keshavnagar Pul,,18.53362,73.94113,,,,,,
34924,153054,NDA Stadium,,18.4561,73.75426,,,,,,
34926,151952,Kalyaninagar,,18.54851,73.90585,,,,,,
34927,150759,Choundhe Lowns,,18.58633,73.78091,,,,,,
34929,150461,Bhandari Niwas,,18.67391,74.04096,,,,,,
2162,30835,Nashik phata,,18.60805,73.82106,,,,,,
34930,152067,Kaun Road,,18.51911,73.88227,,,,,,
34931,152663,Markal Vajan kata,,18.6715,73.9644,,,,,,
34932,152775,Mhatobachi Alandi,,18.45238,74.06906,,,,,,
34933,154623,Theur Gaon,,18.52286,74.04638,,,,,,
34934,154646,Torana Garden,,18.59702,73.90894,,,,,,
34935,152857,Moraya Raj Park,,18.62087,73.78229,,,,,,
2167,40532,Jagtap Vasti,,18.62968,74.03825,,,,,,
2168,30533,Mail Dagad No 23,,18.63884,74.04776,,,,,,
34936,152630,Mandvi Kh,,18.41179,73.70654,,,,,,
2169,40533,Mail Dagad No 23,,18.63755,74.04696,,,,,,
34937,151725,Jagtap Chowk,,18.49159,73.9,,,,,,
34938,153104,Nilkantheshwar Phata,,18.41733,73.67007,,,,,,
34939,154138,Shinde Farm,,18.5083,73.79042,,,,,,
